{
  "type": "FeatureCollection",
  "features": [
    {"type": "Feature", "geometry": {"type": "Point", "coordinates": [-4.15, 5.33]}, "properties": {"Nom": "Dépôt de Pharmacie", "NOM_SP": "SONGON", "NOM_REG": "DISTRICT AUTONOME D'ABIDJAN"}},
    {"type": "Feature", "geometry": {"type": "Point", "coordinates": [-3.99, 5.35]}, "properties": {"Nom": "Faculté de Pharmacie", "NOM_SP": "ABIDJAN", "NOM_REG": "DISTRICT AUTONOME D'ABIDJAN"}},
    {"type": "Feature", "geometry": {"type": "Point", "coordinates": [-4.10, 5.35]}, "properties": {"Nom": "Grande Pharmacie du Progrès", "NOM_SP": "ABIDJAN", "NOM_REG": "DISTRICT AUTONOME D'ABIDJAN"}},
    {"type": "Feature", "geometry": {"type": "Point", "coordinates": [-3.99, 5.43]}, "properties": {"Nom": "Nouvelle Pharmacie Abobo Belle-Ville", "NOM_SP": "ABIDJAN", "NOM_REG": "DISTRICT AUTONOME D'ABIDJAN"}},
    {"type": "Feature", "geometry": {"type": "Point", "coordinates": [-4.02, 5.32]}, "properties": {"Nom": "Nouvelle Pharmacie Avenue Noguès", "NOM_SP": "ABIDJAN", "NOM_REG": "DISTRICT AUTONOME D'ABIDJAN"}},
    {"type": "Feature", "geometry": {"type": "Point", "coordinates": [-3.97, 5.29]}, "properties": {"Nom": "Nouvelle Pharmacie du Boulevard VGE", "NOM_SP": "ABIDJAN", "NOM_REG": "DISTRICT AUTONOME D'ABIDJAN"}},
    {"type": "Feature", "geometry": {"type": "Point", "coordinates": [-4.01, 5.30]}, "properties": {"Nom": "Nouvelle Pharmacie du Palais des Sports", "NOM_SP": "ABIDJAN", "NOM_REG": "DISTRICT AUTONOME D'ABIDJAN"}},
    {"type": "Feature", "geometry": {"type": "Point", "coordinates": [-3.98, 5.29]}, "properties": {"Nom": "Nouvelle Pharmacie Elite", "NOM_SP": "ABIDJAN", "NOM_REG": "DISTRICT AUTONOME D'ABIDJAN"}},
    {"type": "Feature", "geometry": {"type": "Point", "coordinates": [-4.01, 5.31]}, "properties": {"Nom": "Nouvelle Pharmacie NANAN YAMOUSS...", "NOM_SP": "ABIDJAN", "NOM_REG": "DISTRICT AUTONOME D'ABIDJAN"}},
    {"type": "Feature", "geometry": {"type": "Point", "coordinates": [-4.08, 5.35]}, "properties": {"Nom": "Nouvelle Pharmacie PHENIX", "NOM_SP": "ABIDJAN", "NOM_REG": "DISTRICT AUTONOME D'ABIDJAN"}},
    {"type": "Feature", "geometry": {"type": "Point", "coordinates": [-3.96, 5.35]}, "properties": {"Nom": "Pharmacie", "NOM_SP": "ABIDJAN", "NOM_REG": "DISTRICT AUTONOME D'ABIDJAN"}},
    {"type": "Feature", "geometry": {"type": "Point", "coordinates": [-3.97, 5.28]}, "properties": {"Nom": "Pharmacie", "NOM_SP": "ABIDJAN", "NOM_REG": "DISTRICT AUTONOME D'ABIDJAN"}},
    {"type": "Feature", "geometry": {"type": "Point", "coordinates": [-3.99, 5.40]}, "properties": {"Nom": "Pharmacie", "NOM_SP": "ABIDJAN", "NOM_REG": "DISTRICT AUTONOME D'ABIDJAN"}},
    {"type": "Feature", "geometry": {"type": "Point", "coordinates": [-4.03, 5.35]}, "properties": {"Nom": "Pharmacie", "NOM_SP": "ABIDJAN", "NOM_REG": "DISTRICT AUTONOME D'ABIDJAN"}},
    {"type": "Feature", "geometry": {"type": "Point", "coordinates": [-4.03, 5.37]}, "properties": {"Nom": "Pharmacie", "NOM_SP": "ABIDJAN", "NOM_REG": "DISTRICT AUTONOME D'ABIDJAN"}},
    {"type": "Feature", "geometry": {"type": "Point", "coordinates": [-3.98, 5.26]}, "properties": {"Nom": "Pharmacie", "NOM_SP": "ABIDJAN", "NOM_REG": "DISTRICT AUTONOME D'ABIDJAN"}},
    {"type": "Feature", "geometry": {"type": "Point", "coordinates": [-4.10, 5.34]}, "properties": {"Nom": "Pharmacie Cité Maroc", "NOM_SP": "ABIDJAN", "NOM_REG": "DISTRICT AUTONOME D'ABIDJAN"}},
    {"type": "Feature", "geometry": {"type": "Point", "coordinates": [-4.00, 5.35]}, "properties": {"Nom": "Pharmacie 7 Colonnes", "NOM_SP": "ABIDJAN", "NOM_REG": "DISTRICT AUTONOME D'ABIDJAN"}},
    {"type": "Feature", "geometry": {"type": "Point", "coordinates": [-3.99, 5.39]}, "properties": {"Nom": "Pharmacie 7ème Tranche", "NOM_SP": "ABIDJAN", "NOM_REG": "DISTRICT AUTONOME D'ABIDJAN"}},
    {"type": "Feature", "geometry": {"type": "Point", "coordinates": [-3.98, 5.40]}, "properties": {"Nom": "Pharmacie 8me Tranche", "NOM_SP": "ABIDJAN", "NOM_REG": "DISTRICT AUTONOME D'ABIDJAN"}},
    {"type": "Feature", "geometry": {"type": "Point", "coordinates": [-4.02, 5.42]}, "properties": {"Nom": "Pharmacie Abobo-Santé", "NOM_SP": "ABIDJAN", "NOM_REG": "DISTRICT AUTONOME D'ABIDJAN"}},
    {"type": "Feature", "geometry": {"type": "Point", "coordinates": [-4.02, 5.36]}, "properties": {"Nom": "Pharmacie Adjam Mirador", "NOM_SP": "ABIDJAN", "NOM_REG": "DISTRICT AUTONOME D'ABIDJAN"}},
    {"type": "Feature", "geometry": {"type": "Point", "coordinates": [-4.03, 5.34]}, "properties": {"Nom": "Pharmacie ADJAME SANTE", "NOM_SP": "ABIDJAN", "NOM_REG": "DISTRICT AUTONOME D'ABIDJAN"}},
    {"type": "Feature", "geometry": {"type": "Point", "coordinates": [-4.03, 5.36]}, "properties": {"Nom": "Pharmacie Agban", "NOM_SP": "ABIDJAN", "NOM_REG": "DISTRICT AUTONOME D'ABIDJAN"}},
    {"type": "Feature", "geometry": {"type": "Point", "coordinates": [-4.03, 5.35]}, "properties": {"Nom": "Pharmacie AGOUA", "NOM_SP": "ABIDJAN", "NOM_REG": "DISTRICT AUTONOME D'ABIDJAN"}},
    {"type": "Feature", "geometry": {"type": "Point", "coordinates": [-4.08, 5.32]}, "properties": {"Nom": "Pharmacie AKADJOBA", "NOM_SP": "ABIDJAN", "NOM_REG": "DISTRICT AUTONOME D'ABIDJAN"}},
    {"type": "Feature", "geometry": {"type": "Point", "coordinates": [-4.10, 5.35]}, "properties": {"Nom": "Pharmacie Alicia", "NOM_SP": "ABIDJAN", "NOM_REG": "DISTRICT AUTONOME D'ABIDJAN"}},
    {"type": "Feature", "geometry": {"type": "Point", "coordinates": [-4.01, 5.30]}, "properties": {"Nom": "Pharmacie Alpha 16", "NOM_SP": "ABIDJAN", "NOM_REG": "DISTRICT AUTONOME D'ABIDJAN"}},
    {"type": "Feature", "geometry": {"type": "Point", "coordinates": [-4.02, 5.44]}, "properties": {"Nom": "Pharmacie AMINA", "NOM_SP": "ABIDJAN", "NOM_REG": "DISTRICT AUTONOME D'ABIDJAN"}},
    {"type": "Feature", "geometry": {"type": "Point", "coordinates": [-4.10, 5.35]}, "properties": {"Nom": "Pharmacie Ananeraie", "NOM_SP": "ABIDJAN", "NOM_REG": "DISTRICT AUTONOME D'ABIDJAN"}},
    {"type": "Feature", "geometry": {"type": "Point", "coordinates": [-3.97, 5.34]}, "properties": {"Nom": "Pharmacie ANDY", "NOM_SP": "ABIDJAN", "NOM_REG": "DISTRICT AUTONOME D'ABIDJAN"}},
    {"type": "Feature", "geometry": {"type": "Point", "coordinates": [-4.02, 5.32]}, "properties": {"Nom": "Pharmacie Aniaman", "NOM_SP": "ABIDJAN", "NOM_REG": "DISTRICT AUTONOME D'ABIDJAN"}},
    {"type": "Feature", "geometry": {"type": "Point", "coordinates": [-3.96, 5.29]}, "properties": {"Nom": "Pharmacie Aniel", "NOM_SP": "ABIDJAN", "NOM_REG": "DISTRICT AUTONOME D'ABIDJAN"}},
    {"type": "Feature", "geometry": {"type": "Point", "coordinates": [-3.98, 5.31]}, "properties": {"Nom": "Pharmacie Anoumabo", "NOM_SP": "ABIDJAN", "NOM_REG": "DISTRICT AUTONOME D'ABIDJAN"}},
    {"type": "Feature", "geometry": {"type": "Point", "coordinates": [-3.97, 5.39]}, "properties": {"Nom": "Pharmacie Appaul", "NOM_SP": "ABIDJAN", "NOM_REG": "DISTRICT AUTONOME D'ABIDJAN"}},
    {"type": "Feature", "geometry": {"type": "Point", "coordinates": [-4.11, 5.33]}, "properties": {"Nom": "Pharmacie Archange", "NOM_SP": "ABIDJAN", "NOM_REG": "DISTRICT AUTONOME D'ABIDJAN"}},
    {"type": "Feature", "geometry": {"type": "Point", "coordinates": [-4.08, 5.33]}, "properties": {"Nom": "Pharmacie ARTENIA", "NOM_SP": "ABIDJAN", "NOM_REG": "DISTRICT AUTONOME D'ABIDJAN"}},
    {"type": "Feature", "geometry": {"type": "Point", "coordinates": [-4.09, 5.32]}, "properties": {"Nom": "Pharmacie ASSALAM", "NOM_SP": "ABIDJAN", "NOM_REG": "DISTRICT AUTONOME D'ABIDJAN"}},
    {"type": "Feature", "geometry": {"type": "Point", "coordinates": [-4.07, 5.33]}, "properties": {"Nom": "Pharmacie Assonvon", "NOM_SP": "ABIDJAN", "NOM_REG": "DISTRICT AUTONOME D'ABIDJAN"}},
    {"type": "Feature", "geometry": {"type": "Point", "coordinates": [-3.96, 5.25]}, "properties": {"Nom": "Pharmacie Atlantique", "NOM_SP": "ABIDJAN", "NOM_REG": "DISTRICT AUTONOME D'ABIDJAN"}},
    {"type": "Feature", "geometry": {"type": "Point", "coordinates": [-4.03, 5.35]}, "properties": {"Nom": "Pharmacie Attécoubé", "NOM_SP": "ABIDJAN", "NOM_REG": "DISTRICT AUTONOME D'ABIDJAN"}},
    {"type": "Feature", "geometry": {"type": "Point", "coordinates": [-4.02, 5.32]}, "properties": {"Nom": "Pharmacie Avenue Chardie", "NOM_SP": "ABIDJAN", "NOM_REG": "DISTRICT AUTONOME D'ABIDJAN"}},
    {"type": "Feature", "geometry": {"type": "Point", "coordinates": [-4.03, 5.44]}, "properties": {"Nom": "Pharmacie Avocatier Marché", "NOM_SP": "ABIDJAN", "NOM_REG": "DISTRICT AUTONOME D'ABIDJAN"}},
    {"type": "Feature", "geometry": {"type": "Point", "coordinates": [-4.07, 5.34]}, "properties": {"Nom": "Pharmacie AWALE", "NOM_SP": "ABIDJAN", "NOM_REG": "DISTRICT AUTONOME D'ABIDJAN"}},
    {"type": "Feature", "geometry": {"type": "Point", "coordinates": [-4.01, 5.40]}, "properties": {"Nom": "Pharmacie AZUR", "NOM_SP": "ABIDJAN", "NOM_REG": "DISTRICT AUTONOME D'ABIDJAN"}},
    {"type": "Feature", "geometry": {"type": "Point", "coordinates": [-3.94, 5.31]}, "properties": {"Nom": "Pharmacie BABAKAN", "NOM_SP": "ABIDJAN", "NOM_REG": "DISTRICT AUTONOME D'ABIDJAN"}},
    {"type": "Feature", "geometry": {"type": "Point", "coordinates": [-3.96, 5.26]}, "properties": {"Nom": "Pharmacie Balnéaire", "NOM_SP": "ABIDJAN", "NOM_REG": "DISTRICT AUTONOME D'ABIDJAN"}},
    {"type": "Feature", "geometry": {"type": "Point", "coordinates": [-4.03, 5.35]}, "properties": {"Nom": "Pharmacie Banco", "NOM_SP": "ABIDJAN", "NOM_REG": "DISTRICT AUTONOME D'ABIDJAN"}},
    {"type": "Feature", "geometry": {"type": "Point", "coordinates": [-4.10, 5.35]}, "properties": {"Nom": "Pharmacie BATHESDA", "NOM_SP": "ABIDJAN", "NOM_REG": "DISTRICT AUTONOME D'ABIDJAN"}},
    {"type": "Feature", "geometry": {"type": "Point", "coordinates": [-4.06, 5.35]}, "properties": {"Nom": "Pharmacie Bel Air", "NOM_SP": "ABIDJAN", "NOM_REG": "DISTRICT AUTONOME D'ABIDJAN"}},
    {"type": "Feature", "geometry": {"type": "Point", "coordinates": [-3.99, 5.41]}, "properties": {"Nom": "Pharmacie Bel Horizon", "NOM_SP": "ABIDJAN", "NOM_REG": "DISTRICT AUTONOME D'ABIDJAN"}},
    {"type": "Feature", "geometry": {"type": "Point", "coordinates": [-4.01, 5.32]}, "properties": {"Nom": "Pharmacie Bel'Fam", "NOM_SP": "ABIDJAN", "NOM_REG": "DISTRICT AUTONOME D'ABIDJAN"}},
    {"type": "Feature", "geometry": {"type": "Point", "coordinates": [-4.02, 5.35]}, "properties": {"Nom": "Pharmacie Belier", "NOM_SP": "ABIDJAN", "NOM_REG": "DISTRICT AUTONOME D'ABIDJAN"}},
    {"type": "Feature", "geometry": {"type": "Point", "coordinates": [-4.00, 5.30]}, "properties": {"Nom": "Pharmacie Belle-Vie", "NOM_SP": "ABIDJAN", "NOM_REG": "DISTRICT AUTONOME D'ABIDJAN"}},
    {"type": "Feature", "geometry": {"type": "Point", "coordinates": [-3.96, 5.29]}, "properties": {"Nom": "Pharmacie Beniabié", "NOM_SP": "ABIDJAN", "NOM_REG": "DISTRICT AUTONOME D'ABIDJAN"}},
    {"type": "Feature", "geometry": {"type": "Point", "coordinates": [-3.96, 5.28]}, "properties": {"Nom": "Pharmacie Bethanie", "NOM_SP": "ABIDJAN", "NOM_REG": "DISTRICT AUTONOME D'ABIDJAN"}},
    {"type": "Feature", "geometry": {"type": "Point", "coordinates": [-3.97, 5.26]}, "properties": {"Nom": "Pharmacie Bethel Port-Bouët", "NOM_SP": "ABIDJAN", "NOM_REG": "DISTRICT AUTONOME D'ABIDJAN"}},
    {"type": "Feature", "geometry": {"type": "Point", "coordinates": [-4.09, 5.32]}, "properties": {"Nom": "Pharmacie BEYNIOUAH", "NOM_SP": "ABIDJAN", "NOM_REG": "DISTRICT AUTONOME D'ABIDJAN"}},
    {"type": "Feature", "geometry": {"type": "Point", "coordinates": [-4.00, 5.32]}, "properties": {"Nom": "Pharmacie Blockhauss", "NOM_SP": "ABIDJAN", "NOM_REG": "DISTRICT AUTONOME D'ABIDJAN"}},
    {"type": "Feature", "geometry": {"type": "Point", "coordinates": [-3.96, 5.35]}, "properties": {"Nom": "Pharmacie Bon Pasteur", "NOM_SP": "ABIDJAN", "NOM_REG": "DISTRICT AUTONOME D'ABIDJAN"}},
    {"type": "Feature", "geometry": {"type": "Point", "coordinates": [-3.97, 5.36]}, "properties": {"Nom": "Pharmacie Bonoumin", "NOM_SP": "ABIDJAN", "NOM_REG": "DISTRICT AUTONOME D'ABIDJAN"}},
    {"type": "Feature", "geometry": {"type": "Point", "coordinates": [-4.08, 5.36]}, "properties": {"Nom": "Pharmacie Célia", "NOM_SP": "ABIDJAN", "NOM_REG": "DISTRICT AUTONOME D'ABIDJAN"}},
    {"type": "Feature", "geometry": {"type": "Point", "coordinates": [-4.07, 5.32]}, "properties": {"Nom": "Pharmacie Camp Militaire", "NOM_SP": "ABIDJAN", "NOM_REG": "DISTRICT AUTONOME D'ABIDJAN"}},
    {"type": "Feature", "geometry": {"type": "Point", "coordinates": [-3.98, 5.29]}, "properties": {"Nom": "Pharmacie Canaan", "NOM_SP": "ABIDJAN", "NOM_REG": "DISTRICT AUTONOME D'ABIDJAN"}},
    {"type": "Feature", "geometry": {"type": "Point", "coordinates": [-4.05, 5.32]}, "properties": {"Nom": "Pharmacie Carrefour", "NOM_SP": "ABIDJAN", "NOM_REG": "DISTRICT AUTONOME D'ABIDJAN"}},
    {"type": "Feature", "geometry": {"type": "Point", "coordinates": [-4.02, 5.41]}, "properties": {"Nom": "Pharmacie Carrefour Anador", "NOM_SP": "ABIDJAN", "NOM_REG": "DISTRICT AUTONOME D'ABIDJAN"}},
    {"type": "Feature", "geometry": {"type": "Point", "coordinates": [-4.05, 5.46]}, "properties": {"Nom": "Pharmacie Carrefour Ancienne Gendar...", "NOM_SP": "ANYAMA", "NOM_REG": "DISTRICT AUTONOME D'ABIDJAN"}},
    {"type": "Feature", "geometry": {"type": "Point", "coordinates": [-4.09, 5.33]}, "properties": {"Nom": "Pharmacie Carrefour BOBY", "NOM_SP": "ABIDJAN", "NOM_REG": "DISTRICT AUTONOME D'ABIDJAN"}},
    {"type": "Feature", "geometry": {"type": "Point", "coordinates": [-4.06, 5.44]}, "properties": {"Nom": "Pharmacie Carrefour Diallo", "NOM_SP": "ABIDJAN", "NOM_REG": "DISTRICT AUTONOME D'ABIDJAN"}},
    {"type": "Feature", "geometry": {"type": "Point", "coordinates": [-3.89, 5.36]}, "properties": {"Nom": "Pharmacie Carrefour Santé", "NOM_SP": "BINGERVILLE", "NOM_REG": "DISTRICT AUTONOME D'ABIDJAN"}},
    {"type": "Feature", "geometry": {"type": "Point", "coordinates": [-3.98, 5.39]}, "properties": {"Nom": "Pharmacie Cellule Saine", "NOM_SP": "ABIDJAN", "NOM_REG": "DISTRICT AUTONOME D'ABIDJAN"}},
    {"type": "Feature", "geometry": {"type": "Point", "coordinates": [-4.02, 5.32]}, "properties": {"Nom": "Pharmacie Centrale", "NOM_SP": "ABIDJAN", "NOM_REG": "DISTRICT AUTONOME D'ABIDJAN"}},
    {"type": "Feature", "geometry": {"type": "Point", "coordinates": [-4.03, 5.35]}, "properties": {"Nom": "Pharmacie Centrale d'Attécoubé", "NOM_SP": "ABIDJAN", "NOM_REG": "DISTRICT AUTONOME D'ABIDJAN"}},
    {"type": "Feature", "geometry": {"type": "Point", "coordinates": [-3.92, 5.34]}, "properties": {"Nom": "Pharmacie CEPHAS", "NOM_SP": "BINGERVILLE", "NOM_REG": "DISTRICT AUTONOME D'ABIDJAN"}},
    {"type": "Feature", "geometry": {"type": "Point", "coordinates": [-4.01, 5.30]}, "properties": {"Nom": "Pharmacie Cheminot", "NOM_SP": "ABIDJAN", "NOM_REG": "DISTRICT AUTONOME D'ABIDJAN"}},
    {"type": "Feature", "geometry": {"type": "Point", "coordinates": [-4.04, 5.32]}, "properties": {"Nom": "Pharmacie Chenain", "NOM_SP": "ABIDJAN", "NOM_REG": "DISTRICT AUTONOME D'ABIDJAN"}},
    {"type": "Feature", "geometry": {"type": "Point", "coordinates": [-4.06, 5.33]}, "properties": {"Nom": "Pharmacie Chigata", "NOM_SP": "ABIDJAN", "NOM_REG": "DISTRICT AUTONOME D'ABIDJAN"}},
    {"type": "Feature", "geometry": {"type": "Point", "coordinates": [-4.03, 5.36]}, "properties": {"Nom": "Pharmacie CHRIST Stella", "NOM_SP": "ABIDJAN", "NOM_REG": "DISTRICT AUTONOME D'ABIDJAN"}},
    {"type": "Feature", "geometry": {"type": "Point", "coordinates": [-4.02, 5.33]}, "properties": {"Nom": "Pharmacie CIE du Boulevard Carde", "NOM_SP": "ABIDJAN", "NOM_REG": "DISTRICT AUTONOME D'ABIDJAN"}},
    {"type": "Feature", "geometry": {"type": "Point", "coordinates": [-3.97, 5.29]}, "properties": {"Nom": "Pharmacie Climbié", "NOM_SP": "ABIDJAN", "NOM_REG": "DISTRICT AUTONOME D'ABIDJAN"}},
    {"type": "Feature", "geometry": {"type": "Point", "coordinates": [-4.00, 5.35]}, "properties": {"Nom": "Pharmacie Comoé", "NOM_SP": "ABIDJAN", "NOM_REG": "DISTRICT AUTONOME D'ABIDJAN"}},
    {"type": "Feature", "geometry": {"type": "Point", "coordinates": [-3.93, 5.37]}, "properties": {"Nom": "Pharmacie CYD NIKO", "NOM_SP": "ABIDJAN", "NOM_REG": "DISTRICT AUTONOME D'ABIDJAN"}},
    {"type": "Feature", "geometry": {"type": "Point", "coordinates": [-3.97, 5.28]}, "properties": {"Nom": "Pharmacie Cyrille Dr Polneau", "NOM_SP": "ABIDJAN", "NOM_REG": "DISTRICT AUTONOME D'ABIDJAN"}},
    {"type": "Feature", "geometry": {"type": "Point", "coordinates": [-3.99, 5.42]}, "properties": {"Nom": "Pharmacie d'Abobo-Baoulé", "NOM_SP": "ABIDJAN", "NOM_REG": "DISTRICT AUTONOME D'ABIDJAN"}},
    {"type": "Feature", "geometry": {"type": "Point", "coordinates": [-4.04, 5.31]}, "properties": {"Nom": "Pharmacie d'Abobo-Doumé", "NOM_SP": "ABIDJAN", "NOM_REG": "DISTRICT AUTONOME D'ABIDJAN"}},
    {"type": "Feature", "geometry": {"type": "Point", "coordinates": [-4.01, 5.41]}, "properties": {"Nom": "Pharmacie d'ABOBO-TE", "NOM_SP": "ABIDJAN", "NOM_REG": "DISTRICT AUTONOME D'ABIDJAN"}},
    {"type": "Feature", "geometry": {"type": "Point", "coordinates": [-4.07, 5.36]}, "properties": {"Nom": "Pharmacie d'Andokoi", "NOM_SP": "ABIDJAN", "NOM_REG": "DISTRICT AUTONOME D'ABIDJAN"}},
    {"type": "Feature", "geometry": {"type": "Point", "coordinates": [-3.99, 5.40]}, "properties": {"Nom": "Pharmacie d'Angré", "NOM_SP": "ABIDJAN", "NOM_REG": "DISTRICT AUTONOME D'ABIDJAN"}},
    {"type": "Feature", "geometry": {"type": "Point", "coordinates": [-4.00, 5.30]}, "properties": {"Nom": "Pharmacie d'Arras", "NOM_SP": "ABIDJAN", "NOM_REG": "DISTRICT AUTONOME D'ABIDJAN"}},
    {"type": "Feature", "geometry": {"type": "Point", "coordinates": [-4.09, 5.31]}, "properties": {"Nom": "Pharmacie d'Azito", "NOM_SP": "ABIDJAN", "NOM_REG": "DISTRICT AUTONOME D'ABIDJAN"}},
    {"type": "Feature", "geometry": {"type": "Point", "coordinates": [-3.99, 5.29]}, "properties": {"Nom": "Pharmacie de BD de Marseille", "NOM_SP": "ABIDJAN", "NOM_REG": "DISTRICT AUTONOME D'ABIDJAN"}},
    {"type": "Feature", "geometry": {"type": "Point", "coordinates": [-3.98, 5.28]}, "properties": {"Nom": "Pharmacie de Biétry", "NOM_SP": "ABIDJAN", "NOM_REG": "DISTRICT AUTONOME D'ABIDJAN"}},
    {"type": "Feature", "geometry": {"type": "Point", "coordinates": [-4.03, 5.36]}, "properties": {"Nom": "Pharmacie de Bracody", "NOM_SP": "ABIDJAN", "NOM_REG": "DISTRICT AUTONOME D'ABIDJAN"}},
    {"type": "Feature", "geometry": {"type": "Point", "coordinates": [-4.06, 5.33]}, "properties": {"Nom": "Pharmacie De Cité", "NOM_SP": "ABIDJAN", "NOM_REG": "DISTRICT AUTONOME D'ABIDJAN"}},
    {"type": "Feature", "geometry": {"type": "Point", "coordinates": [-3.93, 5.39]}, "properties": {"Nom": "Pharmacie de Cité SIR", "NOM_SP": "ABIDJAN", "NOM_REG": "DISTRICT AUTONOME D'ABIDJAN"}},
    {"type": "Feature", "geometry": {"type": "Point", "coordinates": [-4.00, 5.34]}, "properties": {"Nom": "Pharmacie de Cocody", "NOM_SP": "ABIDJAN", "NOM_REG": "DISTRICT AUTONOME D'ABIDJAN"}},
    {"type": "Feature", "geometry": {"type": "Point", "coordinates": [-4.10, 5.36]}, "properties": {"Nom": "Pharmacie de GESCO", "NOM_SP": "ABIDJAN", "NOM_REG": "DISTRICT AUTONOME D'ABIDJAN"}},
    {"type": "Feature", "geometry": {"type": "Point", "coordinates": [-3.97, 5.29]}, "properties": {"Nom": "Pharmacie de Koumassi", "NOM_SP": "ABIDJAN", "NOM_REG": "DISTRICT AUTONOME D'ABIDJAN"}},
    {"type": "Feature", "geometry": {"type": "Point", "coordinates": [-3.97, 5.30]}, "properties": {"Nom": "Pharmacie de la Bagoé", "NOM_SP": "ABIDJAN", "NOM_REG": "DISTRICT AUTONOME D'ABIDJAN"}},
    {"type": "Feature", "geometry": {"type": "Point", "coordinates": [-3.97, 5.26]}, "properties": {"Nom": "Pharmacie de la Baltique", "NOM_SP": "ABIDJAN", "NOM_REG": "DISTRICT AUTONOME D'ABIDJAN"}},
    {"type": "Feature", "geometry": {"type": "Point", "coordinates": [-4.01, 5.30]}, "properties": {"Nom": "Pharmacie de la Caserne", "NOM_SP": "ABIDJAN", "NOM_REG": "DISTRICT AUTONOME D'ABIDJAN"}},
    {"type": "Feature", "geometry": {"type": "Point", "coordinates": [-4.01, 5.44]}, "properties": {"Nom": "Pharmacie de La Cité", "NOM_SP": "ABIDJAN", "NOM_REG": "DISTRICT AUTONOME D'ABIDJAN"}},
    {"type": "Feature", "geometry": {"type": "Point", "coordinates": [-4.01, 5.34]}, "properties": {"Nom": "Pharmacie de la cité de Cocody", "NOM_SP": "ABIDJAN", "NOM_REG": "DISTRICT AUTONOME D'ABIDJAN"}},
    {"type": "Feature", "geometry": {"type": "Point", "coordinates": [-3.98, 5.41]}, "properties": {"Nom": "Pharmacie de la Djibi", "NOM_SP": "ABIDJAN", "NOM_REG": "DISTRICT AUTONOME D'ABIDJAN"}},
    {"type": "Feature", "geometry": {"type": "Point", "coordinates": [-3.99, 5.30]}, "properties": {"Nom": "Pharmacie de la Galerie", "NOM_SP": "ABIDJAN", "NOM_REG": "DISTRICT AUTONOME D'ABIDJAN"}},
    {"type": "Feature", "geometry": {"type": "Point", "coordinates": [-4.02, 5.42]}, "properties": {"Nom": "Pharmacie De La Mairie", "NOM_SP": "ABIDJAN", "NOM_REG": "DISTRICT AUTONOME D'ABIDJAN"}},
    {"type": "Feature", "geometry": {"type": "Point", "coordinates": [-4.03, 5.34]}, "properties": {"Nom": "Pharmacie de la Mairie", "NOM_SP": "ABIDJAN", "NOM_REG": "DISTRICT AUTONOME D'ABIDJAN"}},
    {"type": "Feature", "geometry": {"type": "Point", "coordinates": [-4.07, 5.34]}, "properties": {"Nom": "Pharmacie De La Mairie", "NOM_SP": "ABIDJAN", "NOM_REG": "DISTRICT AUTONOME D'ABIDJAN"}},
    {"type": "Feature", "geometry": {"type": "Point", "coordinates": [-4.02, 5.42]}, "properties": {"Nom": "Pharmacie De La ME", "NOM_SP": "ABIDJAN", "NOM_REG": "DISTRICT AUTONOME D'ABIDJAN"}},
    {"type": "Feature", "geometry": {"type": "Point", "coordinates": [-4.03, 5.35]}, "properties": {"Nom": "Pharmacie de la Mosquée", "NOM_SP": "ABIDJAN", "NOM_REG": "DISTRICT AUTONOME D'ABIDJAN"}},
    {"type": "Feature", "geometry": {"type": "Point", "coordinates": [-3.99, 5.31]}, "properties": {"Nom": "Pharmacie de la paix", "NOM_SP": "ABIDJAN", "NOM_REG": "DISTRICT AUTONOME D'ABIDJAN"}},
    {"type": "Feature", "geometry": {"type": "Point", "coordinates": [-4.01, 5.44]}, "properties": {"Nom": "Pharmacie de la Plaque II", "NOM_SP": "ABIDJAN", "NOM_REG": "DISTRICT AUTONOME D'ABIDJAN"}},
    {"type": "Feature", "geometry": {"type": "Point", "coordinates": [-4.01, 5.43]}, "properties": {"Nom": "Pharmacie de la SOGEFIHA", "NOM_SP": "ABIDJAN", "NOM_REG": "DISTRICT AUTONOME D'ABIDJAN"}},
    {"type": "Feature", "geometry": {"type": "Point", "coordinates": [-3.99, 5.31]}, "properties": {"Nom": "Pharmacie de la Vie", "NOM_SP": "ABIDJAN", "NOM_REG": "DISTRICT AUTONOME D'ABIDJAN"}},
    {"type": "Feature", "geometry": {"type": "Point", "coordinates": [-3.99, 5.30]}, "properties": {"Nom": "Pharmacie de la Zone 3", "NOM_SP": "ABIDJAN", "NOM_REG": "DISTRICT AUTONOME D'ABIDJAN"}},
    {"type": "Feature", "geometry": {"type": "Point", "coordinates": [-3.98, 5.30]}, "properties": {"Nom": "Pharmacie de l'Amitié", "NOM_SP": "ABIDJAN", "NOM_REG": "DISTRICT AUTONOME D'ABIDJAN"}},
    {"type": "Feature", "geometry": {"type": "Point", "coordinates": [-4.07, 5.33]}, "properties": {"Nom": "Pharmacie de l'Antenne", "NOM_SP": "ABIDJAN", "NOM_REG": "DISTRICT AUTONOME D'ABIDJAN"}},
    {"type": "Feature", "geometry": {"type": "Point", "coordinates": [-4.10, 5.37]}, "properties": {"Nom": "Pharmacie de l'Autoroute", "NOM_SP": "ABIDJAN", "NOM_REG": "DISTRICT AUTONOME D'ABIDJAN"}},
    {"type": "Feature", "geometry": {"type": "Point", "coordinates": [-4.01, 5.30]}, "properties": {"Nom": "Pharmacie de l'Avenue 21", "NOM_SP": "ABIDJAN", "NOM_REG": "DISTRICT AUTONOME D'ABIDJAN"}},
    {"type": "Feature", "geometry": {"type": "Point", "coordinates": [-4.02, 5.35]}, "properties": {"Nom": "Pharmacie de l'Espoir", "NOM_SP": "ABIDJAN", "NOM_REG": "DISTRICT AUTONOME D'ABIDJAN"}},
    {"type": "Feature", "geometry": {"type": "Point", "coordinates": [-4.02, 5.43]}, "properties": {"Nom": "Pharmacie de L'Etoile", "NOM_SP": "ABIDJAN", "NOM_REG": "DISTRICT AUTONOME D'ABIDJAN"}},
    {"type": "Feature", "geometry": {"type": "Point", "coordinates": [-4.08, 5.33]}, "properties": {"Nom": "Pharmacie de l'HOREB", "NOM_SP": "ABIDJAN", "NOM_REG": "DISTRICT AUTONOME D'ABIDJAN"}},
    {"type": "Feature", "geometry": {"type": "Point", "coordinates": [-3.98, 5.35]}, "properties": {"Nom": "Pharmacie de l'Immaculée Conception", "NOM_SP": "ABIDJAN", "NOM_REG": "DISTRICT AUTONOME D'ABIDJAN"}},
    {"type": "Feature", "geometry": {"type": "Point", "coordinates": [-4.02, 5.34]}, "properties": {"Nom": "Pharmacie de l'Indni", "NOM_SP": "ABIDJAN", "NOM_REG": "DISTRICT AUTONOME D'ABIDJAN"}},
    {"type": "Feature", "geometry": {"type": "Point", "coordinates": [-3.98, 5.31]}, "properties": {"Nom": "Pharmacie de l'INJS", "NOM_SP": "ABIDJAN", "NOM_REG": "DISTRICT AUTONOME D'ABIDJAN"}},
    {"type": "Feature", "geometry": {"type": "Point", "coordinates": [-3.96, 5.26]}, "properties": {"Nom": "Pharmacie de l'Océan", "NOM_SP": "ABIDJAN", "NOM_REG": "DISTRICT AUTONOME D'ABIDJAN"}},
    {"type": "Feature", "geometry": {"type": "Point", "coordinates": [-3.96, 5.26]}, "properties": {"Nom": "Pharmacie de Port-Bouët", "NOM_SP": "ABIDJAN", "NOM_REG": "DISTRICT AUTONOME D'ABIDJAN"}},
    {"type": "Feature", "geometry": {"type": "Point", "coordinates": [-4.08, 5.32]}, "properties": {"Nom": "Pharmacie DE SION", "NOM_SP": "ABIDJAN", "NOM_REG": "DISTRICT AUTONOME D'ABIDJAN"}},
    {"type": "Feature", "geometry": {"type": "Point", "coordinates": [-4.02, 5.37]}, "properties": {"Nom": "Pharmacie de Williamsville", "NOM_SP": "ABIDJAN", "NOM_REG": "DISTRICT AUTONOME D'ABIDJAN"}},
    {"type": "Feature", "geometry": {"type": "Point", "coordinates": [-4.08, 5.34]}, "properties": {"Nom": "Pharmacie des 3 Ponts", "NOM_SP": "ABIDJAN", "NOM_REG": "DISTRICT AUTONOME D'ABIDJAN"}},
    {"type": "Feature", "geometry": {"type": "Point", "coordinates": [-3.99, 5.41]}, "properties": {"Nom": "Pharmacie des Allées", "NOM_SP": "ABIDJAN", "NOM_REG": "DISTRICT AUTONOME D'ABIDJAN"}},
    {"type": "Feature", "geometry": {"type": "Point", "coordinates": [-4.00, 5.34]}, "properties": {"Nom": "Pharmacie des Arts", "NOM_SP": "ABIDJAN", "NOM_REG": "DISTRICT AUTONOME D'ABIDJAN"}},
    {"type": "Feature", "geometry": {"type": "Point", "coordinates": [-4.02, 5.32]}, "properties": {"Nom": "Pharmacie des Banques", "NOM_SP": "ABIDJAN", "NOM_REG": "DISTRICT AUTONOME D'ABIDJAN"}},
    {"type": "Feature", "geometry": {"type": "Point", "coordinates": [-4.00, 5.30]}, "properties": {"Nom": "Pharmacie des Brasseurs", "NOM_SP": "ABIDJAN", "NOM_REG": "DISTRICT AUTONOME D'ABIDJAN"}},
    {"type": "Feature", "geometry": {"type": "Point", "coordinates": [-4.00, 5.27]}, "properties": {"Nom": "Pharmacie des Entreprises", "NOM_SP": "ABIDJAN", "NOM_REG": "DISTRICT AUTONOME D'ABIDJAN"}},
    {"type": "Feature", "geometry": {"type": "Point", "coordinates": [-4.10, 5.32]}, "properties": {"Nom": "Pharmacie des Espérances", "NOM_SP": "ABIDJAN", "NOM_REG": "DISTRICT AUTONOME D'ABIDJAN"}},
    {"type": "Feature", "geometry": {"type": "Point", "coordinates": [-4.02, 5.33]}, "properties": {"Nom": "Pharmacie des Finances", "NOM_SP": "ABIDJAN", "NOM_REG": "DISTRICT AUTONOME D'ABIDJAN"}},
    {"type": "Feature", "geometry": {"type": "Point", "coordinates": [-4.01, 5.37]}, "properties": {"Nom": "Pharmacie des Grâces", "NOM_SP": "ABIDJAN", "NOM_REG": "DISTRICT AUTONOME D'ABIDJAN"}},
    {"type": "Feature", "geometry": {"type": "Point", "coordinates": [-3.98, 5.30]}, "properties": {"Nom": "Pharmacie des Hibiscus", "NOM_SP": "ABIDJAN", "NOM_REG": "DISTRICT AUTONOME D'ABIDJAN"}},
    {"type": "Feature", "geometry": {"type": "Point", "coordinates": [-3.99, 5.31]}, "properties": {"Nom": "Pharmacie des Lagunes", "NOM_SP": "ABIDJAN", "NOM_REG": "DISTRICT AUTONOME D'ABIDJAN"}},
    {"type": "Feature", "geometry": {"type": "Point", "coordinates": [-3.99, 5.40]}, "properties": {"Nom": "Pharmacie Des Lauréades", "NOM_SP": "ABIDJAN", "NOM_REG": "DISTRICT AUTONOME D'ABIDJAN"}},
    {"type": "Feature", "geometry": {"type": "Point", "coordinates": [-3.99, 5.40]}, "properties": {"Nom": "Pharmacie des Nations", "NOM_SP": "ABIDJAN", "NOM_REG": "DISTRICT AUTONOME D'ABIDJAN"}},
    {"type": "Feature", "geometry": {"type": "Point", "coordinates": [-3.92, 5.24]}, "properties": {"Nom": "Pharmacie des Plages", "NOM_SP": "ABIDJAN", "NOM_REG": "DISTRICT AUTONOME D'ABIDJAN"}},
    {"type": "Feature", "geometry": {"type": "Point", "coordinates": [-4.02, 5.31]}, "properties": {"Nom": "Pharmacie des Quais", "NOM_SP": "ABIDJAN", "NOM_REG": "DISTRICT AUTONOME D'ABIDJAN"}},
    {"type": "Feature", "geometry": {"type": "Point", "coordinates": [-3.96, 5.30]}, "properties": {"Nom": "Pharmacie des Sables", "NOM_SP": "ABIDJAN", "NOM_REG": "DISTRICT AUTONOME D'ABIDJAN"}},
    {"type": "Feature", "geometry": {"type": "Point", "coordinates": [-4.01, 5.31]}, "properties": {"Nom": "Pharmacie des Trois Mosquées", "NOM_SP": "ABIDJAN", "NOM_REG": "DISTRICT AUTONOME D'ABIDJAN"}},
    {"type": "Feature", "geometry": {"type": "Point", "coordinates": [-4.02, 5.42]}, "properties": {"Nom": "Pharmacie Divine Espérance", "NOM_SP": "ABIDJAN", "NOM_REG": "DISTRICT AUTONOME D'ABIDJAN"}},
    {"type": "Feature", "geometry": {"type": "Point", "coordinates": [-4.09, 5.36]}, "properties": {"Nom": "Pharmacie Divine Grâce", "NOM_SP": "ABIDJAN", "NOM_REG": "DISTRICT AUTONOME D'ABIDJAN"}},
    {"type": "Feature", "geometry": {"type": "Point", "coordinates": [-4.00, 5.38]}, "properties": {"Nom": "Pharmacie Divine Onction", "NOM_SP": "ABIDJAN", "NOM_REG": "DISTRICT AUTONOME D'ABIDJAN"}},
    {"type": "Feature", "geometry": {"type": "Point", "coordinates": [-3.99, 5.28]}, "properties": {"Nom": "Pharmacie Djessou", "NOM_SP": "ABIDJAN", "NOM_REG": "DISTRICT AUTONOME D'ABIDJAN"}},
    {"type": "Feature", "geometry": {"type": "Point", "coordinates": [-3.96, 5.26]}, "properties": {"Nom": "Pharmacie Djigui", "NOM_SP": "ABIDJAN", "NOM_REG": "DISTRICT AUTONOME D'ABIDJAN"}},
    {"type": "Feature", "geometry": {"type": "Point", "coordinates": [-3.98, 5.39]}, "properties": {"Nom": "Pharmacie Du Bien-Etre", "NOM_SP": "ABIDJAN", "NOM_REG": "DISTRICT AUTONOME D'ABIDJAN"}},
    {"type": "Feature", "geometry": {"type": "Point", "coordinates": [-3.96, 5.37]}, "properties": {"Nom": "Pharmacie du Bonheur (FF52)", "NOM_SP": "ABIDJAN", "NOM_REG": "DISTRICT AUTONOME D'ABIDJAN"}},
    {"type": "Feature", "geometry": {"type": "Point", "coordinates": [-4.00, 5.34]}, "properties": {"Nom": "Pharmacie du boulevard de France", "NOM_SP": "ABIDJAN", "NOM_REG": "DISTRICT AUTONOME D'ABIDJAN"}},
    {"type": "Feature", "geometry": {"type": "Point", "coordinates": [-4.03, 5.34]}, "properties": {"Nom": "Pharmacie du Boulevard de la Paix", "NOM_SP": "ABIDJAN", "NOM_REG": "DISTRICT AUTONOME D'ABIDJAN"}},
    {"type": "Feature", "geometry": {"type": "Point", "coordinates": [-3.97, 5.29]}, "properties": {"Nom": "Pharmacie du Boulevard du Gabon", "NOM_SP": "ABIDJAN", "NOM_REG": "DISTRICT AUTONOME D'ABIDJAN"}},
    {"type": "Feature", "geometry": {"type": "Point", "coordinates": [-3.95, 5.30]}, "properties": {"Nom": "Pharmacie du Campement", "NOM_SP": "ABIDJAN", "NOM_REG": "DISTRICT AUTONOME D'ABIDJAN"}},
    {"type": "Feature", "geometry": {"type": "Point", "coordinates": [-3.97, 5.30]}, "properties": {"Nom": "Pharmacie du Canal", "NOM_SP": "ABIDJAN", "NOM_REG": "DISTRICT AUTONOME D'ABIDJAN"}},
    {"type": "Feature", "geometry": {"type": "Point", "coordinates": [-3.99, 5.30]}, "properties": {"Nom": "Pharmacie du Carrefour", "NOM_SP": "ABIDJAN", "NOM_REG": "DISTRICT AUTONOME D'ABIDJAN"}},
    {"type": "Feature", "geometry": {"type": "Point", "coordinates": [-4.06, 5.32]}, "properties": {"Nom": "Pharmacie Du Carrefour Gandhi", "NOM_SP": "ABIDJAN", "NOM_REG": "DISTRICT AUTONOME D'ABIDJAN"}},
    {"type": "Feature", "geometry": {"type": "Point", "coordinates": [-4.09, 5.36]}, "properties": {"Nom": "Pharmacie du CENACLE", "NOM_SP": "ABIDJAN", "NOM_REG": "DISTRICT AUTONOME D'ABIDJAN"}},
    {"type": "Feature", "geometry": {"type": "Point", "coordinates": [-4.03, 5.43]}, "properties": {"Nom": "Pharmacie du Centre", "NOM_SP": "ABIDJAN", "NOM_REG": "DISTRICT AUTONOME D'ABIDJAN"}},
    {"type": "Feature", "geometry": {"type": "Point", "coordinates": [-4.03, 5.35]}, "properties": {"Nom": "Pharmacie du Château", "NOM_SP": "ABIDJAN", "NOM_REG": "DISTRICT AUTONOME D'ABIDJAN"}},
    {"type": "Feature", "geometry": {"type": "Point", "coordinates": [-3.98, 5.41]}, "properties": {"Nom": "Pharmacie du Château d'eau", "NOM_SP": "ABIDJAN", "NOM_REG": "DISTRICT AUTONOME D'ABIDJAN"}},
    {"type": "Feature", "geometry": {"type": "Point", "coordinates": [-4.01, 5.32]}, "properties": {"Nom": "Pharmacie du Commerce", "NOM_SP": "ABIDJAN", "NOM_REG": "DISTRICT AUTONOME D'ABIDJAN"}},
    {"type": "Feature", "geometry": {"type": "Point", "coordinates": [-3.98, 5.34]}, "properties": {"Nom": "Pharmacie du Golf", "NOM_SP": "ABIDJAN", "NOM_REG": "DISTRICT AUTONOME D'ABIDJAN"}},
    {"type": "Feature", "geometry": {"type": "Point", "coordinates": [-3.97, 5.30]}, "properties": {"Nom": "Pharmacie du Grand Marché de Marcory", "NOM_SP": "ABIDJAN", "NOM_REG": "DISTRICT AUTONOME D'ABIDJAN"}},
    {"type": "Feature", "geometry": {"type": "Point", "coordinates": [-4.11, 5.34]}, "properties": {"Nom": "Pharmacie du Jubilé", "NOM_SP": "ABIDJAN", "NOM_REG": "DISTRICT AUTONOME D'ABIDJAN"}},
    {"type": "Feature", "geometry": {"type": "Point", "coordinates": [-4.07, 5.34]}, "properties": {"Nom": "Pharmacie du Lavage", "NOM_SP": "ABIDJAN", "NOM_REG": "DISTRICT AUTONOME D'ABIDJAN"}},
    {"type": "Feature", "geometry": {"type": "Point", "coordinates": [-4.01, 5.30]}, "properties": {"Nom": "Pharmacie du Levant", "NOM_SP": "ABIDJAN", "NOM_REG": "DISTRICT AUTONOME D'ABIDJAN"}},
    {"type": "Feature", "geometry": {"type": "Point", "coordinates": [-4.01, 5.34]}, "properties": {"Nom": "Pharmacie du Lycée Technique", "NOM_SP": "ABIDJAN", "NOM_REG": "DISTRICT AUTONOME D'ABIDJAN"}},
    {"type": "Feature", "geometry": {"type": "Point", "coordinates": [-4.02, 5.32]}, "properties": {"Nom": "Pharmacie du Mémorial", "NOM_SP": "ABIDJAN", "NOM_REG": "DISTRICT AUTONOME D'ABIDJAN"}},
    {"type": "Feature", "geometry": {"type": "Point", "coordinates": [-3.96, 5.30]}, "properties": {"Nom": "Pharmacie du Marais", "NOM_SP": "ABIDJAN", "NOM_REG": "DISTRICT AUTONOME D'ABIDJAN"}},
    {"type": "Feature", "geometry": {"type": "Point", "coordinates": [-4.03, 5.34]}, "properties": {"Nom": "Pharmacie du Marché", "NOM_SP": "ABIDJAN", "NOM_REG": "DISTRICT AUTONOME D'ABIDJAN"}},
    {"type": "Feature", "geometry": {"type": "Point", "coordinates": [-4.08, 5.34]}, "properties": {"Nom": "Pharmacie du Marché", "NOM_SP": "ABIDJAN", "NOM_REG": "DISTRICT AUTONOME D'ABIDJAN"}},
    {"type": "Feature", "geometry": {"type": "Point", "coordinates": [-4.02, 5.35]}, "properties": {"Nom": "Pharmacie du Marché Gouro", "NOM_SP": "ABIDJAN", "NOM_REG": "DISTRICT AUTONOME D'ABIDJAN"}},
    {"type": "Feature", "geometry": {"type": "Point", "coordinates": [-4.02, 5.33]}, "properties": {"Nom": "Pharmacie du Palais de Justice", "NOM_SP": "ABIDJAN", "NOM_REG": "DISTRICT AUTONOME D'ABIDJAN"}},
    {"type": "Feature", "geometry": {"type": "Point", "coordinates": [-4.01, 5.31]}, "properties": {"Nom": "Pharmacie du Palais de la Culture", "NOM_SP": "ABIDJAN", "NOM_REG": "DISTRICT AUTONOME D'ABIDJAN"}},
    {"type": "Feature", "geometry": {"type": "Point", "coordinates": [-3.96, 5.25]}, "properties": {"Nom": "Pharmacie du Phare", "NOM_SP": "ABIDJAN", "NOM_REG": "DISTRICT AUTONOME D'ABIDJAN"}},
    {"type": "Feature", "geometry": {"type": "Point", "coordinates": [-4.01, 5.31]}, "properties": {"Nom": "Pharmacie du Plazza", "NOM_SP": "ABIDJAN", "NOM_REG": "DISTRICT AUTONOME D'ABIDJAN"}},
    {"type": "Feature", "geometry": {"type": "Point", "coordinates": [-4.01, 5.29]}, "properties": {"Nom": "Pharmacie du Port", "NOM_SP": "ABIDJAN", "NOM_REG": "DISTRICT AUTONOME D'ABIDJAN"}},
    {"type": "Feature", "geometry": {"type": "Point", "coordinates": [-4.02, 5.37]}, "properties": {"Nom": "Pharmacie du Progrès", "NOM_SP": "ABIDJAN", "NOM_REG": "DISTRICT AUTONOME D'ABIDJAN"}},
    {"type": "Feature", "geometry": {"type": "Point", "coordinates": [-4.03, 5.35]}, "properties": {"Nom": "Pharmacie du Rocher", "NOM_SP": "ABIDJAN", "NOM_REG": "DISTRICT AUTONOME D'ABIDJAN"}},
    {"type": "Feature", "geometry": {"type": "Point", "coordinates": [-4.03, 5.34]}, "properties": {"Nom": "Pharmacie du Rond Point", "NOM_SP": "ABIDJAN", "NOM_REG": "DISTRICT AUTONOME D'ABIDJAN"}},
    {"type": "Feature", "geometry": {"type": "Point", "coordinates": [-4.00, 5.29]}, "properties": {"Nom": "Pharmacie du Rond-Point", "NOM_SP": "ABIDJAN", "NOM_REG": "DISTRICT AUTONOME D'ABIDJAN"}},
    {"type": "Feature", "geometry": {"type": "Point", "coordinates": [-3.97, 5.29]}, "properties": {"Nom": "Pharmacie du Soleil", "NOM_SP": "ABIDJAN", "NOM_REG": "DISTRICT AUTONOME D'ABIDJAN"}},
    {"type": "Feature", "geometry": {"type": "Point", "coordinates": [-3.94, 5.25]}, "properties": {"Nom": "Pharmacie du Wharf", "NOM_SP": "ABIDJAN", "NOM_REG": "DISTRICT AUTONOME D'ABIDJAN"}},
    {"type": "Feature", "geometry": {"type": "Point", "coordinates": [-3.93, 5.36]}, "properties": {"Nom": "Pharmacie Eau Vive", "NOM_SP": "BINGERVILLE", "NOM_REG": "DISTRICT AUTONOME D'ABIDJAN"}},
    {"type": "Feature", "geometry": {"type": "Point", "coordinates": [-3.98, 5.30]}, "properties": {"Nom": "Pharmacie EBATHE", "NOM_SP": "ABIDJAN", "NOM_REG": "DISTRICT AUTONOME D'ABIDJAN"}},
    {"type": "Feature", "geometry": {"type": "Point", "coordinates": [-4.02, 5.36]}, "properties": {"Nom": "Pharmacie Ebri", "NOM_SP": "ABIDJAN", "NOM_REG": "DISTRICT AUTONOME D'ABIDJAN"}},
    {"type": "Feature", "geometry": {"type": "Point", "coordinates": [-4.05, 5.32]}, "properties": {"Nom": "Pharmacie EDEN", "NOM_SP": "ABIDJAN", "NOM_REG": "DISTRICT AUTONOME D'ABIDJAN"}},
    {"type": "Feature", "geometry": {"type": "Point", "coordinates": [-4.05, 5.48]}, "properties": {"Nom": "Pharmacie ELIEL", "NOM_SP": "ANYAMA", "NOM_REG": "DISTRICT AUTONOME D'ABIDJAN"}},
    {"type": "Feature", "geometry": {"type": "Point", "coordinates": [-4.09, 5.34]}, "properties": {"Nom": "Pharmacie ELKANAH", "NOM_SP": "ABIDJAN", "NOM_REG": "DISTRICT AUTONOME D'ABIDJAN"}},
    {"type": "Feature", "geometry": {"type": "Point", "coordinates": [-3.90, 5.24]}, "properties": {"Nom": "Pharmacie Eloma de Gonzague", "NOM_SP": "ABIDJAN", "NOM_REG": "DISTRICT AUTONOME D'ABIDJAN"}},
    {"type": "Feature", "geometry": {"type": "Point", "coordinates": [-3.96, 5.29]}, "properties": {"Nom": "Pharmacie EMILE", "NOM_SP": "ABIDJAN", "NOM_REG": "DISTRICT AUTONOME D'ABIDJAN"}},
    {"type": "Feature", "geometry": {"type": "Point", "coordinates": [-3.93, 5.38]}, "properties": {"Nom": "Pharmacie Ephrata", "NOM_SP": "ABIDJAN", "NOM_REG": "DISTRICT AUTONOME D'ABIDJAN"}},
    {"type": "Feature", "geometry": {"type": "Point", "coordinates": [-3.99, 5.27]}, "properties": {"Nom": "Pharmacie Epiphanie", "NOM_SP": "ABIDJAN", "NOM_REG": "DISTRICT AUTONOME D'ABIDJAN"}},
    {"type": "Feature", "geometry": {"type": "Point", "coordinates": [-3.98, 5.29]}, "properties": {"Nom": "Pharmacie ES'BIA", "NOM_SP": "ABIDJAN", "NOM_REG": "DISTRICT AUTONOME D'ABIDJAN"}},
    {"type": "Feature", "geometry": {"type": "Point", "coordinates": [-3.98, 5.41]}, "properties": {"Nom": "Pharmacie Espérance", "NOM_SP": "ABIDJAN", "NOM_REG": "DISTRICT AUTONOME D'ABIDJAN"}},
    {"type": "Feature", "geometry": {"type": "Point", "coordinates": [-4.00, 5.38]}, "properties": {"Nom": "Pharmacie ESPACE SANTE", "NOM_SP": "ABIDJAN", "NOM_REG": "DISTRICT AUTONOME D'ABIDJAN"}},
    {"type": "Feature", "geometry": {"type": "Point", "coordinates": [-4.11, 5.33]}, "properties": {"Nom": "Pharmacie Esther", "NOM_SP": "ABIDJAN", "NOM_REG": "DISTRICT AUTONOME D'ABIDJAN"}},
    {"type": "Feature", "geometry": {"type": "Point", "coordinates": [-3.95, 5.31]}, "properties": {"Nom": "Pharmacie Fanny", "NOM_SP": "ABIDJAN", "NOM_REG": "DISTRICT AUTONOME D'ABIDJAN"}},
    {"type": "Feature", "geometry": {"type": "Point", "coordinates": [-4.04, 5.35]}, "properties": {"Nom": "Pharmacie FATIMA", "NOM_SP": "ABIDJAN", "NOM_REG": "DISTRICT AUTONOME D'ABIDJAN"}},
    {"type": "Feature", "geometry": {"type": "Point", "coordinates": [-4.01, 5.31]}, "properties": {"Nom": "Pharmacie Flora", "NOM_SP": "ABIDJAN", "NOM_REG": "DISTRICT AUTONOME D'ABIDJAN"}},
    {"type": "Feature", "geometry": {"type": "Point", "coordinates": [-3.99, 5.41]}, "properties": {"Nom": "Pharmacie Fondasso", "NOM_SP": "ABIDJAN", "NOM_REG": "DISTRICT AUTONOME D'ABIDJAN"}},
    {"type": "Feature", "geometry": {"type": "Point", "coordinates": [-4.02, 5.31]}, "properties": {"Nom": "Pharmacie France-Afrique", "NOM_SP": "ABIDJAN", "NOM_REG": "DISTRICT AUTONOME D'ABIDJAN"}},
    {"type": "Feature", "geometry": {"type": "Point", "coordinates": [-4.07, 5.36]}, "properties": {"Nom": "Pharmacie Gabriel Gare", "NOM_SP": "ABIDJAN", "NOM_REG": "DISTRICT AUTONOME D'ABIDJAN"}},
    {"type": "Feature", "geometry": {"type": "Point", "coordinates": [-3.97, 5.28]}, "properties": {"Nom": "Pharmacie Galilée", "NOM_SP": "ABIDJAN", "NOM_REG": "DISTRICT AUTONOME D'ABIDJAN"}},
    {"type": "Feature", "geometry": {"type": "Point", "coordinates": [-3.96, 5.29]}, "properties": {"Nom": "Pharmacie GAUDO", "NOM_SP": "ABIDJAN", "NOM_REG": "DISTRICT AUTONOME D'ABIDJAN"}},
    {"type": "Feature", "geometry": {"type": "Point", "coordinates": [-4.09, 5.35]}, "properties": {"Nom": "Pharmacie GLORIA", "NOM_SP": "ABIDJAN", "NOM_REG": "DISTRICT AUTONOME D'ABIDJAN"}},
    {"type": "Feature", "geometry": {"type": "Point", "coordinates": [-4.09, 5.35]}, "properties": {"Nom": "Pharmacie Gnimah", "NOM_SP": "ABIDJAN", "NOM_REG": "DISTRICT AUTONOME D'ABIDJAN"}},
    {"type": "Feature", "geometry": {"type": "Point", "coordinates": [-4.01, 5.31]}, "properties": {"Nom": "Pharmacie Grand Marché", "NOM_SP": "ABIDJAN", "NOM_REG": "DISTRICT AUTONOME D'ABIDJAN"}},
    {"type": "Feature", "geometry": {"type": "Point", "coordinates": [-3.97, 5.39]}, "properties": {"Nom": "Pharmacie Hermes", "NOM_SP": "ABIDJAN", "NOM_REG": "DISTRICT AUTONOME D'ABIDJAN"}},
    {"type": "Feature", "geometry": {"type": "Point", "coordinates": [-4.00, 5.29]}, "properties": {"Nom": "Pharmacie IMANN", "NOM_SP": "ABIDJAN", "NOM_REG": "DISTRICT AUTONOME D'ABIDJAN"}},
    {"type": "Feature", "geometry": {"type": "Point", "coordinates": [-3.96, 5.30]}, "properties": {"Nom": "Pharmacie Inch-Allah", "NOM_SP": "ABIDJAN", "NOM_REG": "DISTRICT AUTONOME D'ABIDJAN"}},
    {"type": "Feature", "geometry": {"type": "Point", "coordinates": [-3.96, 5.29]}, "properties": {"Nom": "Pharmacie Iroko", "NOM_SP": "ABIDJAN", "NOM_REG": "DISTRICT AUTONOME D'ABIDJAN"}},
    {"type": "Feature", "geometry": {"type": "Point", "coordinates": [-4.04, 5.44]}, "properties": {"Nom": "Pharmacie Irsi d'Anonkoua-Kouté", "NOM_SP": "ABIDJAN", "NOM_REG": "DISTRICT AUTONOME D'ABIDJAN"}},
    {"type": "Feature", "geometry": {"type": "Point", "coordinates": [-4.10, 5.32]}, "properties": {"Nom": "Pharmacie Jean-Pierre", "NOM_SP": "ABIDJAN", "NOM_REG": "DISTRICT AUTONOME D'ABIDJAN"}},
    {"type": "Feature", "geometry": {"type": "Point", "coordinates": [-3.97, 5.30]}, "properties": {"Nom": "Pharmacie Kahira", "NOM_SP": "ABIDJAN", "NOM_REG": "DISTRICT AUTONOME D'ABIDJAN"}},
    {"type": "Feature", "geometry": {"type": "Point", "coordinates": [-4.02, 5.36]}, "properties": {"Nom": "Pharmacie KANA", "NOM_SP": "ABIDJAN", "NOM_REG": "DISTRICT AUTONOME D'ABIDJAN"}},
    {"type": "Feature", "geometry": {"type": "Point", "coordinates": [-4.01, 5.42]}, "properties": {"Nom": "Pharmacie KENEDY", "NOM_SP": "ABIDJAN", "NOM_REG": "DISTRICT AUTONOME D'ABIDJAN"}},
    {"type": "Feature", "geometry": {"type": "Point", "coordinates": [-4.07, 5.35]}, "properties": {"Nom": "Pharmacie Keneya", "NOM_SP": "ABIDJAN", "NOM_REG": "DISTRICT AUTONOME D'ABIDJAN"}},
    {"type": "Feature", "geometry": {"type": "Point", "coordinates": [-3.90, 5.24]}, "properties": {"Nom": "Pharmacie Koffi Kra", "NOM_SP": "ABIDJAN", "NOM_REG": "DISTRICT AUTONOME D'ABIDJAN"}},
    {"type": "Feature", "geometry": {"type": "Point", "coordinates": [-4.02, 5.35]}, "properties": {"Nom": "Pharmacie Koro", "NOM_SP": "ABIDJAN", "NOM_REG": "DISTRICT AUTONOME D'ABIDJAN"}},
    {"type": "Feature", "geometry": {"type": "Point", "coordinates": [-4.07, 5.33]}, "properties": {"Nom": "Pharmacie Kouté", "NOM_SP": "ABIDJAN", "NOM_REG": "DISTRICT AUTONOME D'ABIDJAN"}},
    {"type": "Feature", "geometry": {"type": "Point", "coordinates": [-4.08, 5.34]}, "properties": {"Nom": "Pharmacie la BELLE FONTAINE", "NOM_SP": "ABIDJAN", "NOM_REG": "DISTRICT AUTONOME D'ABIDJAN"}},
    {"type": "Feature", "geometry": {"type": "Point", "coordinates": [-4.02, 5.34]}, "properties": {"Nom": "Pharmacie LA CORNICHE", "NOM_SP": "ABIDJAN", "NOM_REG": "DISTRICT AUTONOME D'ABIDJAN"}},
    {"type": "Feature", "geometry": {"type": "Point", "coordinates": [-4.08, 5.37]}, "properties": {"Nom": "Pharmacie la Délivrance", "NOM_SP": "ABIDJAN", "NOM_REG": "DISTRICT AUTONOME D'ABIDJAN"}},
    {"type": "Feature", "geometry": {"type": "Point", "coordinates": [-4.01, 5.30]}, "properties": {"Nom": "Pharmacie La Grâce", "NOM_SP": "ABIDJAN", "NOM_REG": "DISTRICT AUTONOME D'ABIDJAN"}},
    {"type": "Feature", "geometry": {"type": "Point", "coordinates": [-4.08, 5.35]}, "properties": {"Nom": "Pharmacie la Maison Blanche", "NOM_SP": "ABIDJAN", "NOM_REG": "DISTRICT AUTONOME D'ABIDJAN"}},
    {"type": "Feature", "geometry": {"type": "Point", "coordinates": [-4.02, 5.41]}, "properties": {"Nom": "Pharmacie La Providence", "NOM_SP": "ABIDJAN", "NOM_REG": "DISTRICT AUTONOME D'ABIDJAN"}},
    {"type": "Feature", "geometry": {"type": "Point", "coordinates": [-4.02, 5.35]}, "properties": {"Nom": "Pharmacie la PROVIDENCE", "NOM_SP": "ABIDJAN", "NOM_REG": "DISTRICT AUTONOME D'ABIDJAN"}},
    {"type": "Feature", "geometry": {"type": "Point", "coordinates": [-4.09, 5.35]}, "properties": {"Nom": "Pharmacie La Vie", "NOM_SP": "ABIDJAN", "NOM_REG": "DISTRICT AUTONOME D'ABIDJAN"}},
    {"type": "Feature", "geometry": {"type": "Point", "coordinates": [-4.09, 5.33]}, "properties": {"Nom": "Pharmacie Léa", "NOM_SP": "ABIDJAN", "NOM_REG": "DISTRICT AUTONOME D'ABIDJAN"}},
    {"type": "Feature", "geometry": {"type": "Point", "coordinates": [-3.97, 5.31]}, "properties": {"Nom": "Pharmacie Léila", "NOM_SP": "ABIDJAN", "NOM_REG": "DISTRICT AUTONOME D'ABIDJAN"}},
    {"type": "Feature", "geometry": {"type": "Point", "coordinates": [-4.02, 5.43]}, "properties": {"Nom": "Pharmacie Léon Ange", "NOM_SP": "ABIDJAN", "NOM_REG": "DISTRICT AUTONOME D'ABIDJAN"}},
    {"type": "Feature", "geometry": {"type": "Point", "coordinates": [-4.11, 5.32]}, "properties": {"Nom": "Pharmacie Lagoma", "NOM_SP": "ABIDJAN", "NOM_REG": "DISTRICT AUTONOME D'ABIDJAN"}},
    {"type": "Feature", "geometry": {"type": "Point", "coordinates": [-3.98, 5.29]}, "properties": {"Nom": "Pharmacie LANVIA", "NOM_SP": "ABIDJAN", "NOM_REG": "DISTRICT AUTONOME D'ABIDJAN"}},
    {"type": "Feature", "geometry": {"type": "Point", "coordinates": [-4.06, 5.33]}, "properties": {"Nom": "Pharmacie Laoulo", "NOM_SP": "ABIDJAN", "NOM_REG": "DISTRICT AUTONOME D'ABIDJAN"}},
    {"type": "Feature", "geometry": {"type": "Point", "coordinates": [-3.99, 5.38]}, "properties": {"Nom": "Pharmacie Las Palmas", "NOM_SP": "ABIDJAN", "NOM_REG": "DISTRICT AUTONOME D'ABIDJAN"}},
    {"type": "Feature", "geometry": {"type": "Point", "coordinates": [-4.02, 5.36]}, "properties": {"Nom": "Pharmacie LATIN", "NOM_SP": "ABIDJAN", "NOM_REG": "DISTRICT AUTONOME D'ABIDJAN"}},
    {"type": "Feature", "geometry": {"type": "Point", "coordinates": [-4.11, 5.33]}, "properties": {"Nom": "Pharmacie Le Jourdain", "NOM_SP": "ABIDJAN", "NOM_REG": "DISTRICT AUTONOME D'ABIDJAN"}},
    {"type": "Feature", "geometry": {"type": "Point", "coordinates": [-4.09, 5.32]}, "properties": {"Nom": "Pharmacie Le Lotus", "NOM_SP": "ABIDJAN", "NOM_REG": "DISTRICT AUTONOME D'ABIDJAN"}},
    {"type": "Feature", "geometry": {"type": "Point", "coordinates": [-3.94, 5.31]}, "properties": {"Nom": "Pharmacie Le Roc", "NOM_SP": "ABIDJAN", "NOM_REG": "DISTRICT AUTONOME D'ABIDJAN"}},
    {"type": "Feature", "geometry": {"type": "Point", "coordinates": [-4.02, 5.32]}, "properties": {"Nom": "Pharmacie Le Trèfle", "NOM_SP": "ABIDJAN", "NOM_REG": "DISTRICT AUTONOME D'ABIDJAN"}},
    {"type": "Feature", "geometry": {"type": "Point", "coordinates": [-4.08, 5.33]}, "properties": {"Nom": "Pharmacie LEM", "NOM_SP": "ABIDJAN", "NOM_REG": "DISTRICT AUTONOME D'ABIDJAN"}},
    {"type": "Feature", "geometry": {"type": "Point", "coordinates": [-4.02, 5.36]}, "properties": {"Nom": "Pharmacie l'EMMANUEL", "NOM_SP": "ABIDJAN", "NOM_REG": "DISTRICT AUTONOME D'ABIDJAN"}},
    {"type": "Feature", "geometry": {"type": "Point", "coordinates": [-4.00, 5.30]}, "properties": {"Nom": "Pharmacie L'Entente", "NOM_SP": "ABIDJAN", "NOM_REG": "DISTRICT AUTONOME D'ABIDJAN"}},
    {"type": "Feature", "geometry": {"type": "Point", "coordinates": [-4.00, 5.40]}, "properties": {"Nom": "Pharmacie Les 4 Saisons", "NOM_SP": "ABIDJAN", "NOM_REG": "DISTRICT AUTONOME D'ABIDJAN"}},
    {"type": "Feature", "geometry": {"type": "Point", "coordinates": [-3.99, 5.38]}, "properties": {"Nom": "Pharmacie Les 7 Lys", "NOM_SP": "ABIDJAN", "NOM_REG": "DISTRICT AUTONOME D'ABIDJAN"}},
    {"type": "Feature", "geometry": {"type": "Point", "coordinates": [-3.98, 5.40]}, "properties": {"Nom": "Pharmacie Les Arcades", "NOM_SP": "ABIDJAN", "NOM_REG": "DISTRICT AUTONOME D'ABIDJAN"}},
    {"type": "Feature", "geometry": {"type": "Point", "coordinates": [-4.01, 5.30]}, "properties": {"Nom": "Pharmacie Les Archanges", "NOM_SP": "ABIDJAN", "NOM_REG": "DISTRICT AUTONOME D'ABIDJAN"}},
    {"type": "Feature", "geometry": {"type": "Point", "coordinates": [-3.98, 5.40]}, "properties": {"Nom": "Pharmacie Les Arums", "NOM_SP": "ABIDJAN", "NOM_REG": "DISTRICT AUTONOME D'ABIDJAN"}},
    {"type": "Feature", "geometry": {"type": "Point", "coordinates": [-4.06, 5.34]}, "properties": {"Nom": "Pharmacie les Béatitudes", "NOM_SP": "ABIDJAN", "NOM_REG": "DISTRICT AUTONOME D'ABIDJAN"}},
    {"type": "Feature", "geometry": {"type": "Point", "coordinates": [-3.93, 5.37]}, "properties": {"Nom": "Pharmacie Les Catleyas", "NOM_SP": "ABIDJAN", "NOM_REG": "DISTRICT AUTONOME D'ABIDJAN"}},
    {"type": "Feature", "geometry": {"type": "Point", "coordinates": [-4.07, 5.37]}, "properties": {"Nom": "Pharmacie les Ecluses", "NOM_SP": "ABIDJAN", "NOM_REG": "DISTRICT AUTONOME D'ABIDJAN"}},
    {"type": "Feature", "geometry": {"type": "Point", "coordinates": [-3.98, 5.34]}, "properties": {"Nom": "Pharmacie les Elias", "NOM_SP": "ABIDJAN", "NOM_REG": "DISTRICT AUTONOME D'ABIDJAN"}},
    {"type": "Feature", "geometry": {"type": "Point", "coordinates": [-4.10, 5.34]}, "properties": {"Nom": "Pharmacie les Elysées", "NOM_SP": "ABIDJAN", "NOM_REG": "DISTRICT AUTONOME D'ABIDJAN"}},
    {"type": "Feature", "geometry": {"type": "Point", "coordinates": [-4.02, 5.33]}, "properties": {"Nom": "Pharmacie LES HARMONIES", "NOM_SP": "ABIDJAN", "NOM_REG": "DISTRICT AUTONOME D'ABIDJAN"}},
    {"type": "Feature", "geometry": {"type": "Point", "coordinates": [-4.00, 5.35]}, "properties": {"Nom": "Pharmacie les MIMOSAS", "NOM_SP": "ABIDJAN", "NOM_REG": "DISTRICT AUTONOME D'ABIDJAN"}},
    {"type": "Feature", "geometry": {"type": "Point", "coordinates": [-4.06, 5.35]}, "properties": {"Nom": "Pharmacie les OLIVIERS", "NOM_SP": "ABIDJAN", "NOM_REG": "DISTRICT AUTONOME D'ABIDJAN"}},
    {"type": "Feature", "geometry": {"type": "Point", "coordinates": [-4.09, 5.32]}, "properties": {"Nom": "Pharmacie les PHALENES", "NOM_SP": "ABIDJAN", "NOM_REG": "DISTRICT AUTONOME D'ABIDJAN"}},
    {"type": "Feature", "geometry": {"type": "Point", "coordinates": [-3.96, 5.31]}, "properties": {"Nom": "Pharmacie les Remblais", "NOM_SP": "ABIDJAN", "NOM_REG": "DISTRICT AUTONOME D'ABIDJAN"}},
    {"type": "Feature", "geometry": {"type": "Point", "coordinates": [-3.96, 5.38]}, "properties": {"Nom": "Pharmacie Les Rosiers", "NOM_SP": "ABIDJAN", "NOM_REG": "DISTRICT AUTONOME D'ABIDJAN"}},
    {"type": "Feature", "geometry": {"type": "Point", "coordinates": [-3.99, 5.38]}, "properties": {"Nom": "Pharmacie Les Tulipes", "NOM_SP": "ABIDJAN", "NOM_REG": "DISTRICT AUTONOME D'ABIDJAN"}},
    {"type": "Feature", "geometry": {"type": "Point", "coordinates": [-3.94, 5.35]}, "properties": {"Nom": "Pharmacie LIVIE d'Akouedo Village", "NOM_SP": "ABIDJAN", "NOM_REG": "DISTRICT AUTONOME D'ABIDJAN"}},
    {"type": "Feature", "geometry": {"type": "Point", "coordinates": [-4.04, 5.32]}, "properties": {"Nom": "Pharmacie LOCODJRO", "NOM_SP": "ABIDJAN", "NOM_REG": "DISTRICT AUTONOME D'ABIDJAN"}},
    {"type": "Feature", "geometry": {"type": "Point", "coordinates": [-4.02, 5.33]}, "properties": {"Nom": "Pharmacie LONGCHAMP", "NOM_SP": "ABIDJAN", "NOM_REG": "DISTRICT AUTONOME D'ABIDJAN"}},
    {"type": "Feature", "geometry": {"type": "Point", "coordinates": [-3.98, 5.41]}, "properties": {"Nom": "Pharmacie Luminence", "NOM_SP": "ABIDJAN", "NOM_REG": "DISTRICT AUTONOME D'ABIDJAN"}},
    {"type": "Feature", "geometry": {"type": "Point", "coordinates": [-4.00, 5.30]}, "properties": {"Nom": "Pharmacie Mégane", "NOM_SP": "ABIDJAN", "NOM_REG": "DISTRICT AUTONOME D'ABIDJAN"}},
    {"type": "Feature", "geometry": {"type": "Point", "coordinates": [-3.98, 5.30]}, "properties": {"Nom": "Pharmacie Méridien", "NOM_SP": "ABIDJAN", "NOM_REG": "DISTRICT AUTONOME D'ABIDJAN"}},
    {"type": "Feature", "geometry": {"type": "Point", "coordinates": [-4.03, 5.44]}, "properties": {"Nom": "Pharmacie Magnificat", "NOM_SP": "ABIDJAN", "NOM_REG": "DISTRICT AUTONOME D'ABIDJAN"}},
    {"type": "Feature", "geometry": {"type": "Point", "coordinates": [-3.97, 5.30]}, "properties": {"Nom": "Pharmacie Mahandiana", "NOM_SP": "ABIDJAN", "NOM_REG": "DISTRICT AUTONOME D'ABIDJAN"}},
    {"type": "Feature", "geometry": {"type": "Point", "coordinates": [-4.02, 5.35]}, "properties": {"Nom": "Pharmacie MAKISSI", "NOM_SP": "ABIDJAN", "NOM_REG": "DISTRICT AUTONOME D'ABIDJAN"}},
    {"type": "Feature", "geometry": {"type": "Point", "coordinates": [-3.96, 5.26]}, "properties": {"Nom": "Pharmacie Malon", "NOM_SP": "ABIDJAN", "NOM_REG": "DISTRICT AUTONOME D'ABIDJAN"}},
    {"type": "Feature", "geometry": {"type": "Point", "coordinates": [-4.10, 5.36]}, "properties": {"Nom": "Pharmacie Mamy Adjoa", "NOM_SP": "ABIDJAN", "NOM_REG": "DISTRICT AUTONOME D'ABIDJAN"}},
    {"type": "Feature", "geometry": {"type": "Point", "coordinates": [-3.99, 5.31]}, "properties": {"Nom": "Pharmacie Marcory PTT", "NOM_SP": "ABIDJAN", "NOM_REG": "DISTRICT AUTONOME D'ABIDJAN"}},
    {"type": "Feature", "geometry": {"type": "Point", "coordinates": [-3.96, 5.38]}, "properties": {"Nom": "Pharmacie Marie Esther", "NOM_SP": "ABIDJAN", "NOM_REG": "DISTRICT AUTONOME D'ABIDJAN"}},
    {"type": "Feature", "geometry": {"type": "Point", "coordinates": [-3.96, 5.37]}, "properties": {"Nom": "Pharmacie Marthe Robin", "NOM_SP": "ABIDJAN", "NOM_REG": "DISTRICT AUTONOME D'ABIDJAN"}},
    {"type": "Feature", "geometry": {"type": "Point", "coordinates": [-3.98, 5.30]}, "properties": {"Nom": "Pharmacie Massarana", "NOM_SP": "ABIDJAN", "NOM_REG": "DISTRICT AUTONOME D'ABIDJAN"}},
    {"type": "Feature", "geometry": {"type": "Point", "coordinates": [-4.02, 5.44]}, "properties": {"Nom": "Pharmacie Maténé", "NOM_SP": "ABIDJAN", "NOM_REG": "DISTRICT AUTONOME D'ABIDJAN"}},
    {"type": "Feature", "geometry": {"type": "Point", "coordinates": [-4.10, 5.33]}, "properties": {"Nom": "Pharmacie MATY", "NOM_SP": "ABIDJAN", "NOM_REG": "DISTRICT AUTONOME D'ABIDJAN"}},
    {"type": "Feature", "geometry": {"type": "Point", "coordinates": [-4.00, 5.34]}, "properties": {"Nom": "Pharmacie MERMOZ", "NOM_SP": "ABIDJAN", "NOM_REG": "DISTRICT AUTONOME D'ABIDJAN"}},
    {"type": "Feature", "geometry": {"type": "Point", "coordinates": [-4.01, 5.31]}, "properties": {"Nom": "Pharmacie Merouane", "NOM_SP": "ABIDJAN", "NOM_REG": "DISTRICT AUTONOME D'ABIDJAN"}},
    {"type": "Feature", "geometry": {"type": "Point", "coordinates": [-3.95, 5.30]}, "properties": {"Nom": "Pharmacie Mesano", "NOM_SP": "ABIDJAN", "NOM_REG": "DISTRICT AUTONOME D'ABIDJAN"}},
    {"type": "Feature", "geometry": {"type": "Point", "coordinates": [-4.05, 5.45]}, "properties": {"Nom": "Pharmacie Milie HEVIE", "NOM_SP": "ABIDJAN", "NOM_REG": "DISTRICT AUTONOME D'ABIDJAN"}},
    {"type": "Feature", "geometry": {"type": "Point", "coordinates": [-4.01, 5.42]}, "properties": {"Nom": "Pharmacie Miria", "NOM_SP": "ABIDJAN", "NOM_REG": "DISTRICT AUTONOME D'ABIDJAN"}},
    {"type": "Feature", "geometry": {"type": "Point", "coordinates": [-4.11, 5.34]}, "properties": {"Nom": "Pharmacie MOAYE", "NOM_SP": "ABIDJAN", "NOM_REG": "DISTRICT AUTONOME D'ABIDJAN"}},
    {"type": "Feature", "geometry": {"type": "Point", "coordinates": [-4.02, 5.32]}, "properties": {"Nom": "Pharmacie Moderne Mazuet", "NOM_SP": "ABIDJAN", "NOM_REG": "DISTRICT AUTONOME D'ABIDJAN"}},
    {"type": "Feature", "geometry": {"type": "Point", "coordinates": [-4.04, 5.33]}, "properties": {"Nom": "Pharmacie Mokla", "NOM_SP": "ABIDJAN", "NOM_REG": "DISTRICT AUTONOME D'ABIDJAN"}},
    {"type": "Feature", "geometry": {"type": "Point", "coordinates": [-3.97, 5.39]}, "properties": {"Nom": "Pharmacie Mont Carmel", "NOM_SP": "ABIDJAN", "NOM_REG": "DISTRICT AUTONOME D'ABIDJAN"}},
    {"type": "Feature", "geometry": {"type": "Point", "coordinates": [-4.03, 5.35]}, "properties": {"Nom": "Pharmacie MONTANA", "NOM_SP": "ABIDJAN", "NOM_REG": "DISTRICT AUTONOME D'ABIDJAN"}},
    {"type": "Feature", "geometry": {"type": "Point", "coordinates": [-3.97, 5.29]}, "properties": {"Nom": "Pharmacie M'Pike", "NOM_SP": "ABIDJAN", "NOM_REG": "DISTRICT AUTONOME D'ABIDJAN"}},
    {"type": "Feature", "geometry": {"type": "Point", "coordinates": [-3.95, 5.33]}, "properties": {"Nom": "Pharmacie M'Pouto", "NOM_SP": "ABIDJAN", "NOM_REG": "DISTRICT AUTONOME D'ABIDJAN"}},
    {"type": "Feature", "geometry": {"type": "Point", "coordinates": [-4.07, 5.33]}, "properties": {"Nom": "Pharmacie Nandy", "NOM_SP": "ABIDJAN", "NOM_REG": "DISTRICT AUTONOME D'ABIDJAN"}},
    {"type": "Feature", "geometry": {"type": "Point", "coordinates": [-4.06, 5.33]}, "properties": {"Nom": "Pharmacie Nankoko", "NOM_SP": "ABIDJAN", "NOM_REG": "DISTRICT AUTONOME D'ABIDJAN"}},
    {"type": "Feature", "geometry": {"type": "Point", "coordinates": [-3.99, 5.40]}, "properties": {"Nom": "Pharmacie Naturelle Botanique", "NOM_SP": "ABIDJAN", "NOM_REG": "DISTRICT AUTONOME D'ABIDJAN"}},
    {"type": "Feature", "geometry": {"type": "Point", "coordinates": [-4.01, 5.44]}, "properties": {"Nom": "Pharmacie N'GOHESSE", "NOM_SP": "ABIDJAN", "NOM_REG": "DISTRICT AUTONOME D'ABIDJAN"}},
    {"type": "Feature", "geometry": {"type": "Point", "coordinates": [-4.02, 5.32]}, "properties": {"Nom": "Pharmacie NIACADIE", "NOM_SP": "ABIDJAN", "NOM_REG": "DISTRICT AUTONOME D'ABIDJAN"}},
    {"type": "Feature", "geometry": {"type": "Point", "coordinates": [-4.10, 5.31]}, "properties": {"Nom": "Pharmacie Niangon", "NOM_SP": "ABIDJAN", "NOM_REG": "DISTRICT AUTONOME D'ABIDJAN"}},
    {"type": "Feature", "geometry": {"type": "Point", "coordinates": [-4.10, 5.33]}, "properties": {"Nom": "Pharmacie Niangon Nord", "NOM_SP": "ABIDJAN", "NOM_REG": "DISTRICT AUTONOME D'ABIDJAN"}},
    {"type": "Feature", "geometry": {"type": "Point", "coordinates": [-4.06, 5.35]}, "properties": {"Nom": "Pharmacie Nissi", "NOM_SP": "ABIDJAN", "NOM_REG": "DISTRICT AUTONOME D'ABIDJAN"}},
    {"type": "Feature", "geometry": {"type": "Point", "coordinates": [-3.99, 5.39]}, "properties": {"Nom": "Pharmacie NOEMIE", "NOM_SP": "ABIDJAN", "NOM_REG": "DISTRICT AUTONOME D'ABIDJAN"}},
    {"type": "Feature", "geometry": {"type": "Point", "coordinates": [-4.00, 5.30]}, "properties": {"Nom": "Pharmacie Notre Dame", "NOM_SP": "ABIDJAN", "NOM_REG": "DISTRICT AUTONOME D'ABIDJAN"}},
    {"type": "Feature", "geometry": {"type": "Point", "coordinates": [-3.98, 5.27]}, "properties": {"Nom": "Pharmacie Notre Dame d'Afrique", "NOM_SP": "ABIDJAN", "NOM_REG": "DISTRICT AUTONOME D'ABIDJAN"}},
    {"type": "Feature", "geometry": {"type": "Point", "coordinates": [-4.00, 5.40]}, "properties": {"Nom": "Pharmacie Notre Dame de Fatima", "NOM_SP": "ABIDJAN", "NOM_REG": "DISTRICT AUTONOME D'ABIDJAN"}},
    {"type": "Feature", "geometry": {"type": "Point", "coordinates": [-4.13, 5.34]}, "properties": {"Nom": "Pharmacie Notre Dame de la Paix", "NOM_SP": "ABIDJAN", "NOM_REG": "DISTRICT AUTONOME D'ABIDJAN"}},
    {"type": "Feature", "geometry": {"type": "Point", "coordinates": [-4.00, 5.33]}, "properties": {"Nom": "Pharmacie Notre Dame de la Pitié", "NOM_SP": "ABIDJAN", "NOM_REG": "DISTRICT AUTONOME D'ABIDJAN"}},
    {"type": "Feature", "geometry": {"type": "Point", "coordinates": [-3.96, 5.36]}, "properties": {"Nom": "Pharmacie Notre Dame de l'Incarnation", "NOM_SP": "ABIDJAN", "NOM_REG": "DISTRICT AUTONOME D'ABIDJAN"}},
    {"type": "Feature", "geometry": {"type": "Point", "coordinates": [-4.05, 5.34]}, "properties": {"Nom": "Pharmacie NOTRE DAME Des VICTOIRES", "NOM_SP": "ABIDJAN", "NOM_REG": "DISTRICT AUTONOME D'ABIDJAN"}},
    {"type": "Feature", "geometry": {"type": "Point", "coordinates": [-3.95, 5.36]}, "properties": {"Nom": "Pharmacie Notre Dame du Refuge", "NOM_SP": "ABIDJAN", "NOM_REG": "DISTRICT AUTONOME D'ABIDJAN"}},
    {"type": "Feature", "geometry": {"type": "Point", "coordinates": [-4.06, 5.34]}, "properties": {"Nom": "Pharmacie Nouveau Quartier", "NOM_SP": "ABIDJAN", "NOM_REG": "DISTRICT AUTONOME D'ABIDJAN"}},
    {"type": "Feature", "geometry": {"type": "Point", "coordinates": [-4.02, 5.35]}, "properties": {"Nom": "Pharmacie Nouvelle 220 Logements", "NOM_SP": "ABIDJAN", "NOM_REG": "DISTRICT AUTONOME D'ABIDJAN"}},
    {"type": "Feature", "geometry": {"type": "Point", "coordinates": [-3.98, 5.28]}, "properties": {"Nom": "Pharmacie Nouvelle Pergola", "NOM_SP": "ABIDJAN", "NOM_REG": "DISTRICT AUTONOME D'ABIDJAN"}},
    {"type": "Feature", "geometry": {"type": "Point", "coordinates": [-4.00, 5.30]}, "properties": {"Nom": "Pharmacie Ode", "NOM_SP": "ABIDJAN", "NOM_REG": "DISTRICT AUTONOME D'ABIDJAN"}},
    {"type": "Feature", "geometry": {"type": "Point", "coordinates": [-4.07, 5.44]}, "properties": {"Nom": "Pharmacie Olympique", "NOM_SP": "ABIDJAN", "NOM_REG": "DISTRICT AUTONOME D'ABIDJAN"}},
    {"type": "Feature", "geometry": {"type": "Point", "coordinates": [-4.01, 5.35]}, "properties": {"Nom": "Pharmacie PALM CLUB", "NOM_SP": "ABIDJAN", "NOM_REG": "DISTRICT AUTONOME D'ABIDJAN"}},
    {"type": "Feature", "geometry": {"type": "Point", "coordinates": [-3.96, 5.36]}, "properties": {"Nom": "Pharmacie Palmeraie", "NOM_SP": "ABIDJAN", "NOM_REG": "DISTRICT AUTONOME D'ABIDJAN"}},
    {"type": "Feature", "geometry": {"type": "Point", "coordinates": [-4.07, 5.36]}, "properties": {"Nom": "Pharmacie Paloma", "NOM_SP": "ABIDJAN", "NOM_REG": "DISTRICT AUTONOME D'ABIDJAN"}},
    {"type": "Feature", "geometry": {"type": "Point", "coordinates": [-4.10, 5.36]}, "properties": {"Nom": "Pharmacie Peniel", "NOM_SP": "ABIDJAN", "NOM_REG": "DISTRICT AUTONOME D'ABIDJAN"}},
    {"type": "Feature", "geometry": {"type": "Point", "coordinates": [-3.98, 5.28]}, "properties": {"Nom": "Pharmacie PERUSIA", "NOM_SP": "ABIDJAN", "NOM_REG": "DISTRICT AUTONOME D'ABIDJAN"}},
    {"type": "Feature", "geometry": {"type": "Point", "coordinates": [-3.98, 5.29]}, "properties": {"Nom": "Pharmacie Pierre et Marie Curie", "NOM_SP": "ABIDJAN", "NOM_REG": "DISTRICT AUTONOME D'ABIDJAN"}},
    {"type": "Feature", "geometry": {"type": "Point", "coordinates": [-4.02, 5.32]}, "properties": {"Nom": "Pharmacie Place de la Republique", "NOM_SP": "ABIDJAN", "NOM_REG": "DISTRICT AUTONOME D'ABIDJAN"}},
    {"type": "Feature", "geometry": {"type": "Point", "coordinates": [-4.09, 5.35]}, "properties": {"Nom": "Pharmacie Port-Bouet 2", "NOM_SP": "ABIDJAN", "NOM_REG": "DISTRICT AUTONOME D'ABIDJAN"}},
    {"type": "Feature", "geometry": {"type": "Point", "coordinates": [-3.89, 5.36]}, "properties": {"Nom": "Pharmacie Principale de Bingerville", "NOM_SP": "BINGERVILLE", "NOM_REG": "DISTRICT AUTONOME D'ABIDJAN"}},
    {"type": "Feature", "geometry": {"type": "Point", "coordinates": [-3.95, 5.30]}, "properties": {"Nom": "Pharmacie Prodomo", "NOM_SP": "ABIDJAN", "NOM_REG": "DISTRICT AUTONOME D'ABIDJAN"}},
    {"type": "Feature", "geometry": {"type": "Point", "coordinates": [-3.95, 5.30]}, "properties": {"Nom": "Pharmacie Quartier Divo", "NOM_SP": "ABIDJAN", "NOM_REG": "DISTRICT AUTONOME D'ABIDJAN"}},
    {"type": "Feature", "geometry": {"type": "Point", "coordinates": [-4.02, 5.41]}, "properties": {"Nom": "Pharmacie Rail", "NOM_SP": "ABIDJAN", "NOM_REG": "DISTRICT AUTONOME D'ABIDJAN"}},
    {"type": "Feature", "geometry": {"type": "Point", "coordinates": [-4.03, 5.37]}, "properties": {"Nom": "Pharmacie RAPHA", "NOM_SP": "ABIDJAN", "NOM_REG": "DISTRICT AUTONOME D'ABIDJAN"}},
    {"type": "Feature", "geometry": {"type": "Point", "coordinates": [-4.02, 5.34]}, "properties": {"Nom": "Pharmacie REBOUL", "NOM_SP": "ABIDJAN", "NOM_REG": "DISTRICT AUTONOME D'ABIDJAN"}},
    {"type": "Feature", "geometry": {"type": "Point", "coordinates": [-3.95, 5.30]}, "properties": {"Nom": "Pharmacie Regina", "NOM_SP": "ABIDJAN", "NOM_REG": "DISTRICT AUTONOME D'ABIDJAN"}},
    {"type": "Feature", "geometry": {"type": "Point", "coordinates": [-4.04, 5.35]}, "properties": {"Nom": "Pharmacie REHOBOTH", "NOM_SP": "ABIDJAN", "NOM_REG": "DISTRICT AUTONOME D'ABIDJAN"}},
    {"type": "Feature", "geometry": {"type": "Point", "coordinates": [-3.95, 5.35]}, "properties": {"Nom": "Pharmacie Riviera III", "NOM_SP": "ABIDJAN", "NOM_REG": "DISTRICT AUTONOME D'ABIDJAN"}},
    {"type": "Feature", "geometry": {"type": "Point", "coordinates": [-4.02, 5.35]}, "properties": {"Nom": "Pharmacie ROEDDENDT", "NOM_SP": "ABIDJAN", "NOM_REG": "DISTRICT AUTONOME D'ABIDJAN"}},
    {"type": "Feature", "geometry": {"type": "Point", "coordinates": [-4.01, 5.44]}, "properties": {"Nom": "Pharmacie Route Akéikoi", "NOM_SP": "ABIDJAN", "NOM_REG": "DISTRICT AUTONOME D'ABIDJAN"}},
    {"type": "Feature", "geometry": {"type": "Point", "coordinates": [-4.05, 5.46]}, "properties": {"Nom": "Pharmacie Route d'Anyama", "NOM_SP": "ABIDJAN", "NOM_REG": "DISTRICT AUTONOME D'ABIDJAN"}},
    {"type": "Feature", "geometry": {"type": "Point", "coordinates": [-3.91, 5.24]}, "properties": {"Nom": "Pharmacie Route de Bassam", "NOM_SP": "ABIDJAN", "NOM_REG": "DISTRICT AUTONOME D'ABIDJAN"}},
    {"type": "Feature", "geometry": {"type": "Point", "coordinates": [-4.09, 5.34]}, "properties": {"Nom": "Pharmacie Roxane", "NOM_SP": "ABIDJAN", "NOM_REG": "DISTRICT AUTONOME D'ABIDJAN"}},
    {"type": "Feature", "geometry": {"type": "Point", "coordinates": [-4.01, 5.31]}, "properties": {"Nom": "Pharmacie Roy", "NOM_SP": "ABIDJAN", "NOM_REG": "DISTRICT AUTONOME D'ABIDJAN"}},
    {"type": "Feature", "geometry": {"type": "Point", "coordinates": [-4.01, 5.31]}, "properties": {"Nom": "Pharmacie Rue 12", "NOM_SP": "ABIDJAN", "NOM_REG": "DISTRICT AUTONOME D'ABIDJAN"}},
    {"type": "Feature", "geometry": {"type": "Point", "coordinates": [-3.96, 5.37]}, "properties": {"Nom": "Pharmacie Rue Ministre", "NOM_SP": "ABIDJAN", "NOM_REG": "DISTRICT AUTONOME D'ABIDJAN"}},
    {"type": "Feature", "geometry": {"type": "Point", "coordinates": [-4.05, 5.45]}, "properties": {"Nom": "Pharmacie Saint Alexandre", "NOM_SP": "ABIDJAN", "NOM_REG": "DISTRICT AUTONOME D'ABIDJAN"}},
    {"type": "Feature", "geometry": {"type": "Point", "coordinates": [-3.99, 5.40]}, "properties": {"Nom": "Pharmacie Saint- Christophe", "NOM_SP": "ABIDJAN", "NOM_REG": "DISTRICT AUTONOME D'ABIDJAN"}},
    {"type": "Feature", "geometry": {"type": "Point", "coordinates": [-4.09, 5.36]}, "properties": {"Nom": "Pharmacie Saint Clément", "NOM_SP": "ABIDJAN", "NOM_REG": "DISTRICT AUTONOME D'ABIDJAN"}},
    {"type": "Feature", "geometry": {"type": "Point", "coordinates": [-4.04, 5.31]}, "properties": {"Nom": "Pharmacie Saint Etienne", "NOM_SP": "ABIDJAN", "NOM_REG": "DISTRICT AUTONOME D'ABIDJAN"}},
    {"type": "Feature", "geometry": {"type": "Point", "coordinates": [-4.01, 5.43]}, "properties": {"Nom": "Pharmacie Saint François Xavier", "NOM_SP": "ABIDJAN", "NOM_REG": "DISTRICT AUTONOME D'ABIDJAN"}},
    {"type": "Feature", "geometry": {"type": "Point", "coordinates": [-3.96, 5.28]}, "properties": {"Nom": "Pharmacie Saint Georges", "NOM_SP": "ABIDJAN", "NOM_REG": "DISTRICT AUTONOME D'ABIDJAN"}},
    {"type": "Feature", "geometry": {"type": "Point", "coordinates": [-3.94, 5.37]}, "properties": {"Nom": "Pharmacie Saint Georges d'Akouedo", "NOM_SP": "ABIDJAN", "NOM_REG": "DISTRICT AUTONOME D'ABIDJAN"}},
    {"type": "Feature", "geometry": {"type": "Point", "coordinates": [-3.95, 5.37]}, "properties": {"Nom": "Pharmacie Saint Joseph", "NOM_SP": "ABIDJAN", "NOM_REG": "DISTRICT AUTONOME D'ABIDJAN"}},
    {"type": "Feature", "geometry": {"type": "Point", "coordinates": [-3.99, 5.37]}, "properties": {"Nom": "Pharmacie Saint Joseph", "NOM_SP": "ABIDJAN", "NOM_REG": "DISTRICT AUTONOME D'ABIDJAN"}},
    {"type": "Feature", "geometry": {"type": "Point", "coordinates": [-3.95, 5.29]}, "properties": {"Nom": "Pharmacie Saint Lucien", "NOM_SP": "ABIDJAN", "NOM_REG": "DISTRICT AUTONOME D'ABIDJAN"}},
    {"type": "Feature", "geometry": {"type": "Point", "coordinates": [-4.08, 5.32]}, "properties": {"Nom": "Pharmacie Saint Martin", "NOM_SP": "ABIDJAN", "NOM_REG": "DISTRICT AUTONOME D'ABIDJAN"}},
    {"type": "Feature", "geometry": {"type": "Point", "coordinates": [-3.97, 5.37]}, "properties": {"Nom": "Pharmacie Saint Paul", "NOM_SP": "ABIDJAN", "NOM_REG": "DISTRICT AUTONOME D'ABIDJAN"}},
    {"type": "Feature", "geometry": {"type": "Point", "coordinates": [-3.98, 5.35]}, "properties": {"Nom": "Pharmacie Saint Pierre des Rosées", "NOM_SP": "ABIDJAN", "NOM_REG": "DISTRICT AUTONOME D'ABIDJAN"}},
    {"type": "Feature", "geometry": {"type": "Point", "coordinates": [-3.96, 5.37]}, "properties": {"Nom": "Pharmacie Saint Raphael Archange", "NOM_SP": "ABIDJAN", "NOM_REG": "DISTRICT AUTONOME D'ABIDJAN"}},
    {"type": "Feature", "geometry": {"type": "Point", "coordinates": [-3.95, 5.30]}, "properties": {"Nom": "Pharmacie Saint Sauveur", "NOM_SP": "ABIDJAN", "NOM_REG": "DISTRICT AUTONOME D'ABIDJAN"}},
    {"type": "Feature", "geometry": {"type": "Point", "coordinates": [-3.91, 5.37]}, "properties": {"Nom": "Pharmacie Saint Sylvestre d'Ayopomin", "NOM_SP": "BINGERVILLE", "NOM_REG": "DISTRICT AUTONOME D'ABIDJAN"}},
    {"type": "Feature", "geometry": {"type": "Point", "coordinates": [-4.01, 5.37]}, "properties": {"Nom": "Pharmacie Saint Uriel", "NOM_SP": "ABIDJAN", "NOM_REG": "DISTRICT AUTONOME D'ABIDJAN"}},
    {"type": "Feature", "geometry": {"type": "Point", "coordinates": [-3.96, 5.36]}, "properties": {"Nom": "Pharmacie Sainte Agathe", "NOM_SP": "ABIDJAN", "NOM_REG": "DISTRICT AUTONOME D'ABIDJAN"}},
    {"type": "Feature", "geometry": {"type": "Point", "coordinates": [-4.08, 5.36]}, "properties": {"Nom": "Pharmacie Sainte Aude", "NOM_SP": "ABIDJAN", "NOM_REG": "DISTRICT AUTONOME D'ABIDJAN"}},
    {"type": "Feature", "geometry": {"type": "Point", "coordinates": [-3.96, 5.37]}, "properties": {"Nom": "Pharmacie Sainte Béatrice des Rosiers", "NOM_SP": "ABIDJAN", "NOM_REG": "DISTRICT AUTONOME D'ABIDJAN"}},
    {"type": "Feature", "geometry": {"type": "Point", "coordinates": [-4.02, 5.43]}, "properties": {"Nom": "Pharmacie Sainte Croix", "NOM_SP": "ABIDJAN", "NOM_REG": "DISTRICT AUTONOME D'ABIDJAN"}},
    {"type": "Feature", "geometry": {"type": "Point", "coordinates": [-3.97, 5.36]}, "properties": {"Nom": "Pharmacie Sainte Famille", "NOM_SP": "ABIDJAN", "NOM_REG": "DISTRICT AUTONOME D'ABIDJAN"}},
    {"type": "Feature", "geometry": {"type": "Point", "coordinates": [-3.94, 5.31]}, "properties": {"Nom": "Pharmacie Sainte Foi", "NOM_SP": "ABIDJAN", "NOM_REG": "DISTRICT AUTONOME D'ABIDJAN"}},
    {"type": "Feature", "geometry": {"type": "Point", "coordinates": [-4.00, 5.31]}, "properties": {"Nom": "Pharmacie Sainte Jeanne", "NOM_SP": "ABIDJAN", "NOM_REG": "DISTRICT AUTONOME D'ABIDJAN"}},
    {"type": "Feature", "geometry": {"type": "Point", "coordinates": [-3.96, 5.38]}, "properties": {"Nom": "Pharmacie Sainte Marie des Béatitudes", "NOM_SP": "ABIDJAN", "NOM_REG": "DISTRICT AUTONOME D'ABIDJAN"}},
    {"type": "Feature", "geometry": {"type": "Point", "coordinates": [-3.97, 5.28]}, "properties": {"Nom": "Pharmacie Sainte Marie-Majeure", "NOM_SP": "ABIDJAN", "NOM_REG": "DISTRICT AUTONOME D'ABIDJAN"}},
    {"type": "Feature", "geometry": {"type": "Point", "coordinates": [-4.10, 5.33]}, "properties": {"Nom": "Pharmacie Sainte Rita de CASCIA", "NOM_SP": "ABIDJAN", "NOM_REG": "DISTRICT AUTONOME D'ABIDJAN"}},
    {"type": "Feature", "geometry": {"type": "Point", "coordinates": [-3.95, 5.31]}, "properties": {"Nom": "Pharmacie Saint-Paul", "NOM_SP": "ABIDJAN", "NOM_REG": "DISTRICT AUTONOME D'ABIDJAN"}},
    {"type": "Feature", "geometry": {"type": "Point", "coordinates": [-3.97, 5.37]}, "properties": {"Nom": "Pharmacie Saints Côme et Damien", "NOM_SP": "ABIDJAN", "NOM_REG": "DISTRICT AUTONOME D'ABIDJAN"}},
    {"type": "Feature", "geometry": {"type": "Point", "coordinates": [-4.10, 5.35]}, "properties": {"Nom": "Pharmacie Sandrina", "NOM_SP": "ABIDJAN", "NOM_REG": "DISTRICT AUTONOME D'ABIDJAN"}},
    {"type": "Feature", "geometry": {"type": "Point", "coordinates": [-4.00, 5.39]}, "properties": {"Nom": "Pharmacie Santé de Vie", "NOM_SP": "ABIDJAN", "NOM_REG": "DISTRICT AUTONOME D'ABIDJAN"}},
    {"type": "Feature", "geometry": {"type": "Point", "coordinates": [-4.10, 5.37]}, "properties": {"Nom": "Pharmacie Santé Plus", "NOM_SP": "ABIDJAN", "NOM_REG": "DISTRICT AUTONOME D'ABIDJAN"}},
    {"type": "Feature", "geometry": {"type": "Point", "coordinates": [-4.05, 5.44]}, "properties": {"Nom": "Pharmacie Saphir", "NOM_SP": "ABIDJAN", "NOM_REG": "DISTRICT AUTONOME D'ABIDJAN"}},
    {"type": "Feature", "geometry": {"type": "Point", "coordinates": [-4.02, 5.36]}, "properties": {"Nom": "Pharmacie SARAH", "NOM_SP": "ABIDJAN", "NOM_REG": "DISTRICT AUTONOME D'ABIDJAN"}},
    {"type": "Feature", "geometry": {"type": "Point", "coordinates": [-4.08, 5.35]}, "properties": {"Nom": "Pharmacie Schekina", "NOM_SP": "ABIDJAN", "NOM_REG": "DISTRICT AUTONOME D'ABIDJAN"}},
    {"type": "Feature", "geometry": {"type": "Point", "coordinates": [-3.98, 5.30]}, "properties": {"Nom": "Pharmacie se trouvant dans PRIMA", "NOM_SP": "ABIDJAN", "NOM_REG": "DISTRICT AUTONOME D'ABIDJAN"}},
    {"type": "Feature", "geometry": {"type": "Point", "coordinates": [-4.03, 5.35]}, "properties": {"Nom": "Pharmacie Sebroko", "NOM_SP": "ABIDJAN", "NOM_REG": "DISTRICT AUTONOME D'ABIDJAN"}},
    {"type": "Feature", "geometry": {"type": "Point", "coordinates": [-4.07, 5.35]}, "properties": {"Nom": "Pharmacie SEGAÉ", "NOM_SP": "ABIDJAN", "NOM_REG": "DISTRICT AUTONOME D'ABIDJAN"}},
    {"type": "Feature", "geometry": {"type": "Point", "coordinates": [-4.07, 5.34]}, "properties": {"Nom": "Pharmacie Selmer", "NOM_SP": "ABIDJAN", "NOM_REG": "DISTRICT AUTONOME D'ABIDJAN"}},
    {"type": "Feature", "geometry": {"type": "Point", "coordinates": [-4.02, 5.35]}, "properties": {"Nom": "Pharmacie SENEVE", "NOM_SP": "ABIDJAN", "NOM_REG": "DISTRICT AUTONOME D'ABIDJAN"}},
    {"type": "Feature", "geometry": {"type": "Point", "coordinates": [-4.08, 5.34]}, "properties": {"Nom": "Pharmacie SHALOM", "NOM_SP": "ABIDJAN", "NOM_REG": "DISTRICT AUTONOME D'ABIDJAN"}},
    {"type": "Feature", "geometry": {"type": "Point", "coordinates": [-4.08, 5.32]}, "properties": {"Nom": "Pharmacie SIDECI Extension", "NOM_SP": "ABIDJAN", "NOM_REG": "DISTRICT AUTONOME D'ABIDJAN"}},
    {"type": "Feature", "geometry": {"type": "Point", "coordinates": [-4.07, 5.36]}, "properties": {"Nom": "Pharmacie SIPOREX", "NOM_SP": "ABIDJAN", "NOM_REG": "DISTRICT AUTONOME D'ABIDJAN"}},
    {"type": "Feature", "geometry": {"type": "Point", "coordinates": [-3.95, 5.30]}, "properties": {"Nom": "Pharmacie SOPIM", "NOM_SP": "ABIDJAN", "NOM_REG": "DISTRICT AUTONOME D'ABIDJAN"}},
    {"type": "Feature", "geometry": {"type": "Point", "coordinates": [-3.96, 5.29]}, "properties": {"Nom": "Pharmacie St Albert", "NOM_SP": "ABIDJAN", "NOM_REG": "DISTRICT AUTONOME D'ABIDJAN"}},
    {"type": "Feature", "geometry": {"type": "Point", "coordinates": [-4.07, 5.34]}, "properties": {"Nom": "Pharmacie St André", "NOM_SP": "ABIDJAN", "NOM_REG": "DISTRICT AUTONOME D'ABIDJAN"}},
    {"type": "Feature", "geometry": {"type": "Point", "coordinates": [-3.98, 5.35]}, "properties": {"Nom": "Pharmacie St ATHANASE", "NOM_SP": "ABIDJAN", "NOM_REG": "DISTRICT AUTONOME D'ABIDJAN"}},
    {"type": "Feature", "geometry": {"type": "Point", "coordinates": [-4.00, 5.34]}, "properties": {"Nom": "Pharmacie St DOMINIQUE", "NOM_SP": "ABIDJAN", "NOM_REG": "DISTRICT AUTONOME D'ABIDJAN"}},
    {"type": "Feature", "geometry": {"type": "Point", "coordinates": [-3.96, 5.30]}, "properties": {"Nom": "Pharmacie St François", "NOM_SP": "ABIDJAN", "NOM_REG": "DISTRICT AUTONOME D'ABIDJAN"}},
    {"type": "Feature", "geometry": {"type": "Point", "coordinates": [-4.00, 5.34]}, "properties": {"Nom": "Pharmacie St François Danga", "NOM_SP": "ABIDJAN", "NOM_REG": "DISTRICT AUTONOME D'ABIDJAN"}},
    {"type": "Feature", "geometry": {"type": "Point", "coordinates": [-3.99, 5.39]}, "properties": {"Nom": "Pharmacie St Gabriel", "NOM_SP": "ABIDJAN", "NOM_REG": "DISTRICT AUTONOME D'ABIDJAN"}},
    {"type": "Feature", "geometry": {"type": "Point", "coordinates": [-3.99, 5.36]}, "properties": {"Nom": "Pharmacie St Gil", "NOM_SP": "ABIDJAN", "NOM_REG": "DISTRICT AUTONOME D'ABIDJAN"}},
    {"type": "Feature", "geometry": {"type": "Point", "coordinates": [-4.09, 5.33]}, "properties": {"Nom": "Pharmacie St Hermann", "NOM_SP": "ABIDJAN", "NOM_REG": "DISTRICT AUTONOME D'ABIDJAN"}},
    {"type": "Feature", "geometry": {"type": "Point", "coordinates": [-4.00, 5.34]}, "properties": {"Nom": "Pharmacie St JEAN", "NOM_SP": "ABIDJAN", "NOM_REG": "DISTRICT AUTONOME D'ABIDJAN"}},
    {"type": "Feature", "geometry": {"type": "Point", "coordinates": [-4.06, 5.32]}, "properties": {"Nom": "Pharmacie St Laurent", "NOM_SP": "ABIDJAN", "NOM_REG": "DISTRICT AUTONOME D'ABIDJAN"}},
    {"type": "Feature", "geometry": {"type": "Point", "coordinates": [-3.90, 5.25]}, "properties": {"Nom": "Pharmacie St Louis", "NOM_SP": "ABIDJAN", "NOM_REG": "DISTRICT AUTONOME D'ABIDJAN"}},
    {"type": "Feature", "geometry": {"type": "Point", "coordinates": [-3.96, 5.30]}, "properties": {"Nom": "Pharmacie St LOUIS", "NOM_SP": "ABIDJAN", "NOM_REG": "DISTRICT AUTONOME D'ABIDJAN"}},
    {"type": "Feature", "geometry": {"type": "Point", "coordinates": [-4.02, 5.35]}, "properties": {"Nom": "Pharmacie St MICHEL", "NOM_SP": "ABIDJAN", "NOM_REG": "DISTRICT AUTONOME D'ABIDJAN"}},
    {"type": "Feature", "geometry": {"type": "Point", "coordinates": [-3.97, 5.35]}, "properties": {"Nom": "Pharmacie St PIERRE D'ANONO", "NOM_SP": "ABIDJAN", "NOM_REG": "DISTRICT AUTONOME D'ABIDJAN"}},
    {"type": "Feature", "geometry": {"type": "Point", "coordinates": [-4.00, 5.42]}, "properties": {"Nom": "Pharmacie St Sauveur", "NOM_SP": "ABIDJAN", "NOM_REG": "DISTRICT AUTONOME D'ABIDJAN"}},
    {"type": "Feature", "geometry": {"type": "Point", "coordinates": [-3.98, 5.29]}, "properties": {"Nom": "Pharmacie St. Antoine", "NOM_SP": "ABIDJAN", "NOM_REG": "DISTRICT AUTONOME D'ABIDJAN"}},
    {"type": "Feature", "geometry": {"type": "Point", "coordinates": [-4.00, 5.30]}, "properties": {"Nom": "Pharmacie Ste Adèle", "NOM_SP": "ABIDJAN", "NOM_REG": "DISTRICT AUTONOME D'ABIDJAN"}},
    {"type": "Feature", "geometry": {"type": "Point", "coordinates": [-3.97, 5.30]}, "properties": {"Nom": "Pharmacie Ste Agathe", "NOM_SP": "ABIDJAN", "NOM_REG": "DISTRICT AUTONOME D'ABIDJAN"}},
    {"type": "Feature", "geometry": {"type": "Point", "coordinates": [-4.02, 5.33]}, "properties": {"Nom": "Pharmacie Ste ANNE", "NOM_SP": "ABIDJAN", "NOM_REG": "DISTRICT AUTONOME D'ABIDJAN"}},
    {"type": "Feature", "geometry": {"type": "Point", "coordinates": [-4.08, 5.36]}, "properties": {"Nom": "Pharmacie Ste Aude", "NOM_SP": "ABIDJAN", "NOM_REG": "DISTRICT AUTONOME D'ABIDJAN"}},
    {"type": "Feature", "geometry": {"type": "Point", "coordinates": [-3.98, 5.40]}, "properties": {"Nom": "Pharmacie Ste Harmony", "NOM_SP": "ABIDJAN", "NOM_REG": "DISTRICT AUTONOME D'ABIDJAN"}},
    {"type": "Feature", "geometry": {"type": "Point", "coordinates": [-4.01, 5.30]}, "properties": {"Nom": "Pharmacie Ste Jeanne d'Arc", "NOM_SP": "ABIDJAN", "NOM_REG": "DISTRICT AUTONOME D'ABIDJAN"}},
    {"type": "Feature", "geometry": {"type": "Point", "coordinates": [-4.00, 5.34]}, "properties": {"Nom": "Pharmacie Ste MARIE", "NOM_SP": "ABIDJAN", "NOM_REG": "DISTRICT AUTONOME D'ABIDJAN"}},
    {"type": "Feature", "geometry": {"type": "Point", "coordinates": [-4.07, 5.36]}, "properties": {"Nom": "Pharmacie Ste MARIE", "NOM_SP": "ABIDJAN", "NOM_REG": "DISTRICT AUTONOME D'ABIDJAN"}},
    {"type": "Feature", "geometry": {"type": "Point", "coordinates": [-3.93, 5.24]}, "properties": {"Nom": "Pharmacie Ste Marie d'Ajouffou", "NOM_SP": "ABIDJAN", "NOM_REG": "DISTRICT AUTONOME D'ABIDJAN"}},
    {"type": "Feature", "geometry": {"type": "Point", "coordinates": [-3.98, 5.40]}, "properties": {"Nom": "Pharmacie Ste Marthe", "NOM_SP": "ABIDJAN", "NOM_REG": "DISTRICT AUTONOME D'ABIDJAN"}},
    {"type": "Feature", "geometry": {"type": "Point", "coordinates": [-4.00, 5.40]}, "properties": {"Nom": "Pharmacie Ste Monique", "NOM_SP": "ABIDJAN", "NOM_REG": "DISTRICT AUTONOME D'ABIDJAN"}},
    {"type": "Feature", "geometry": {"type": "Point", "coordinates": [-4.00, 5.40]}, "properties": {"Nom": "Pharmacie STE ODILE", "NOM_SP": "ABIDJAN", "NOM_REG": "DISTRICT AUTONOME D'ABIDJAN"}},
    {"type": "Feature", "geometry": {"type": "Point", "coordinates": [-3.99, 5.30]}, "properties": {"Nom": "Pharmacie Ste Thérèse", "NOM_SP": "ABIDJAN", "NOM_REG": "DISTRICT AUTONOME D'ABIDJAN"}},
    {"type": "Feature", "geometry": {"type": "Point", "coordinates": [-4.02, 5.43]}, "properties": {"Nom": "Pharmacie Téhoua", "NOM_SP": "ABIDJAN", "NOM_REG": "DISTRICT AUTONOME D'ABIDJAN"}},
    {"type": "Feature", "geometry": {"type": "Point", "coordinates": [-4.08, 5.34]}, "properties": {"Nom": "Pharmacie TEREZA", "NOM_SP": "ABIDJAN", "NOM_REG": "DISTRICT AUTONOME D'ABIDJAN"}},
    {"type": "Feature", "geometry": {"type": "Point", "coordinates": [-4.02, 5.32]}, "properties": {"Nom": "Pharmacie Terminus", "NOM_SP": "ABIDJAN", "NOM_REG": "DISTRICT AUTONOME D'ABIDJAN"}},
    {"type": "Feature", "geometry": {"type": "Point", "coordinates": [-4.10, 5.35]}, "properties": {"Nom": "Pharmacie Thé N'Talé", "NOM_SP": "ABIDJAN", "NOM_REG": "DISTRICT AUTONOME D'ABIDJAN"}},
    {"type": "Feature", "geometry": {"type": "Point", "coordinates": [-4.09, 5.32]}, "properties": {"Nom": "Pharmacie THEODORA", "NOM_SP": "ABIDJAN", "NOM_REG": "DISTRICT AUTONOME D'ABIDJAN"}},
    {"type": "Feature", "geometry": {"type": "Point", "coordinates": [-3.98, 5.30]}, "properties": {"Nom": "Pharmacie Tiacoh", "NOM_SP": "ABIDJAN", "NOM_REG": "DISTRICT AUTONOME D'ABIDJAN"}},
    {"type": "Feature", "geometry": {"type": "Point", "coordinates": [-4.02, 5.43]}, "properties": {"Nom": "Pharmacie Tima", "NOM_SP": "ABIDJAN", "NOM_REG": "DISTRICT AUTONOME D'ABIDJAN"}},
    {"type": "Feature", "geometry": {"type": "Point", "coordinates": [-4.02, 5.42]}, "properties": {"Nom": "Pharmacie Tsaco", "NOM_SP": "ABIDJAN", "NOM_REG": "DISTRICT AUTONOME D'ABIDJAN"}},
    {"type": "Feature", "geometry": {"type": "Point", "coordinates": [-3.99, 5.31]}, "properties": {"Nom": "Pharmacie TSF", "NOM_SP": "ABIDJAN", "NOM_REG": "DISTRICT AUTONOME D'ABIDJAN"}},
    {"type": "Feature", "geometry": {"type": "Point", "coordinates": [-3.97, 5.38]}, "properties": {"Nom": "Pharmacie Val de Grâce", "NOM_SP": "ABIDJAN", "NOM_REG": "DISTRICT AUTONOME D'ABIDJAN"}},
    {"type": "Feature", "geometry": {"type": "Point", "coordinates": [-4.09, 5.35]}, "properties": {"Nom": "Pharmacie Valors", "NOM_SP": "ABIDJAN", "NOM_REG": "DISTRICT AUTONOME D'ABIDJAN"}},
    {"type": "Feature", "geometry": {"type": "Point", "coordinates": [-3.98, 5.26]}, "properties": {"Nom": "Pharmacie Vidri SIR", "NOM_SP": "ABIDJAN", "NOM_REG": "DISTRICT AUTONOME D'ABIDJAN"}},
    {"type": "Feature", "geometry": {"type": "Point", "coordinates": [-4.00, 5.26]}, "properties": {"Nom": "Pharmacie Vridi-Village", "NOM_SP": "ABIDJAN", "NOM_REG": "DISTRICT AUTONOME D'ABIDJAN"}},
    {"type": "Feature", "geometry": {"type": "Point", "coordinates": [-4.07, 5.34]}, "properties": {"Nom": "Pharmacie Wakoubou", "NOM_SP": "ABIDJAN", "NOM_REG": "DISTRICT AUTONOME D'ABIDJAN"}},
    {"type": "Feature", "geometry": {"type": "Point", "coordinates": [-4.07, 5.35]}, "properties": {"Nom": "Pharmacie Wassakara", "NOM_SP": "ABIDJAN", "NOM_REG": "DISTRICT AUTONOME D'ABIDJAN"}},
    {"type": "Feature", "geometry": {"type": "Point", "coordinates": [-4.07, 5.34]}, "properties": {"Nom": "Pharmacie WILLIAM Ponty", "NOM_SP": "ABIDJAN", "NOM_REG": "DISTRICT AUTONOME D'ABIDJAN"}},
    {"type": "Feature", "geometry": {"type": "Point", "coordinates": [-4.01, 5.44]}, "properties": {"Nom": "Pharmacie YARAPHA", "NOM_SP": "ABIDJAN", "NOM_REG": "DISTRICT AUTONOME D'ABIDJAN"}},
    {"type": "Feature", "geometry": {"type": "Point", "coordinates": [-4.10, 5.34]}, "properties": {"Nom": "Pharmacie ZEULAYET", "NOM_SP": "ABIDJAN", "NOM_REG": "DISTRICT AUTONOME D'ABIDJAN"}},
    {"type": "Feature", "geometry": {"type": "Point", "coordinates": [-4.01, 5.44]}, "properties": {"Nom": "Pharmacien des 4 étages", "NOM_SP": "ABIDJAN", "NOM_REG": "DISTRICT AUTONOME D'ABIDJAN"}}
  ]
}